stop_id,stop_code,stop_name,stop_lat,stop_lon,stop_url
1663,2465011-08501,"Marianki",50.3658629600,19.1877770200,"https://rj.metropoliaztm.pl/rozklady/przystanek/2465011-08501/"
552,2471011-01601,"Dąbrówka Wielka Przychodnia Zdrowia",50.3465075029,18.9992316908,"https://rj.metropoliaztm.pl/rozklady/przystanek/2471011-01601/"
3220,2470011-08702,"Wesoła Dzierżonia",50.1912490900,19.1139948100,"https://rj.metropoliaztm.pl/rozklady/przystanek/2470011-08702/"
3733,2413041-05201,"Stare Tarnowice GCR",50.4309957998,18.8046510648,"https://rj.metropoliaztm.pl/rozklady/przystanek/2413041-05201/"
837,GR01201,"granica BĘDZ - CZEL (Wojkowicka)",50.3392772965,19.0687729386,"https://rj.metropoliaztm.pl/rozklady/przystanek/GR01201/"
8560,2463011-02201,"Chorzów Szkoła Niewidomych",50.2887357300,18.9472794300,"https://rj.metropoliaztm.pl/rozklady/przystanek/2463011-02201/"
791,2414021-00101,"Golcówka Poniatowskiego",50.1472476200,19.2085003800,"https://rj.metropoliaztm.pl/rozklady/przystanek/2414021-00101/"
6195,2477011-00601,"Czułów Narcyzów",50.1419068000,18.9929881700,"https://rj.metropoliaztm.pl/rozklady/przystanek/2477011-00601/"
3051,2401011-06302,"Łagisza Cmentarz nż",50.3526078000,19.1446208900,"https://rj.metropoliaztm.pl/rozklady/przystanek/2401011-06302/"
2333,2401042-01901,"Podsączów",50.4335772000,19.0424334700,"https://rj.metropoliaztm.pl/rozklady/przystanek/2401042-01901/"
5554,2401011-12201,"Będzin Johnson Electric",50.3130597100,19.1514885700,"https://rj.metropoliaztm.pl/rozklady/przystanek/2401011-12201/"
4327,2475011-13702t,"Sosnowiec Piłsudskiego/Sobieskiego",50.2768753500,19.1193806900,"https://rj.metropoliaztm.pl/rozklady/przystanek/2475011-13702t/"
2193,2469011-22602,"Panewniki Wymysłów",50.2287910300,18.9325100200,"https://rj.metropoliaztm.pl/rozklady/przystanek/2469011-22602/"
100,2478011-08602,"Zabrze Aleja Korfantego",50.3186617700,18.7743365700,"https://rj.metropoliaztm.pl/rozklady/przystanek/2478011-08602/"
3846,2413062-03702,"Pyrzowice Wolności",50.4677278079,19.0718144902,"https://rj.metropoliaztm.pl/rozklady/przystanek/2413062-03702/"
14,2475011-14601,"Środula Chemiczna",50.2956726400,19.1435050900,"https://rj.metropoliaztm.pl/rozklady/przystanek/2475011-14601/"
5978,2405082-00702,"Radonia Skrzyżowanie z drogą 901 nż",50.5383860600,18.5837452200,"https://rj.metropoliaztm.pl/rozklady/przystanek/2405082-00702/"
4026,2401052-04102,"Przeczyce Targowa",50.4368777012,19.1594392722,"https://rj.metropoliaztm.pl/rozklady/przystanek/2401052-04102/"
2116,2471011-03402,"Osiedle Wyzwolenia Akacjowa",50.3789003354,18.9358648629,"https://rj.metropoliaztm.pl/rozklady/przystanek/2471011-03402/"
2350,2401075-05301,"Podwarpie Bar",50.4278199300,19.2122816800,"https://rj.metropoliaztm.pl/rozklady/przystanek/2401075-05301/"
6406,2477011-19702,"Wygorzele Jana",50.1280020000,19.0400440000,"https://rj.metropoliaztm.pl/rozklady/przystanek/2477011-19702/"
3093,2414052-01101,"Chełm Śląski Techników",50.1174400300,19.2006976000,"https://rj.metropoliaztm.pl/rozklady/przystanek/2414052-01101/"
6913,GR00102,"granica BĘDZ - DĄBR (Koszelew)",50.3221546350,19.1630188903,"https://rj.metropoliaztm.pl/rozklady/przystanek/GR00102/"
1218,2470011-00302,"Bończyk Kościół",50.2429301100,19.1120528900,"https://rj.metropoliaztm.pl/rozklady/przystanek/2470011-00302/"
5385,2475011-10203,"Porąbka Wiejska",50.2874472900,19.2220187100,"https://rj.metropoliaztm.pl/rozklady/przystanek/2475011-10203/"
1929,2469011-18901,"Ochojec Ziołowa",50.2131814500,18.9887134000,"https://rj.metropoliaztm.pl/rozklady/przystanek/2469011-18901/"
1680,2474011-02001,"Michałkowice Tarnogórska nż",50.3300000733,19.0098595603,"https://rj.metropoliaztm.pl/rozklady/przystanek/2474011-02001/"
1348,2472011-05902,"Kochłowice Krzyż",50.2602589900,18.9016711500,"https://rj.metropoliaztm.pl/rozklady/przystanek/2472011-05902/"
1129,2472011-03501,"Halemba Kościół",50.2445908500,18.8425397800,"https://rj.metropoliaztm.pl/rozklady/przystanek/2472011-03501/"
263,2466011-00302,"Bojków Piekarnia",50.2492699600,18.6710983500,"https://rj.metropoliaztm.pl/rozklady/przystanek/2466011-00302/"
1737,2478011-05002,"Mikulczyce Nowodworska",50.3340909600,18.7701963000,"https://rj.metropoliaztm.pl/rozklady/przystanek/2478011-05002/"
4014,2401052-00202,"Mierzęcice Widokowa nż",50.4469348467,19.1390503403,"https://rj.metropoliaztm.pl/rozklady/przystanek/2401052-00202/"
1741,2478011-05401t,"Mikulczyce Tarnopolska",50.3360696500,18.7833362700,"https://rj.metropoliaztm.pl/rozklady/przystanek/2478011-05401t/"
7133,2469011-03702,"Dąbrówka Mała Nowosam nż",50.2788702300,19.0818958600,"https://rj.metropoliaztm.pl/rozklady/przystanek/2469011-03702/"
2391,2475011-09502,"Porąbka Kopalnia",50.2727203800,19.2238318900,"https://rj.metropoliaztm.pl/rozklady/przystanek/2475011-09502/"
4345,2475011-13501t,"Sosnowiec Sąd",50.2734743700,19.1411494900,"https://rj.metropoliaztm.pl/rozklady/przystanek/2475011-13501t/"
4062,2401011-03202,"Grodziec Asnyka",50.3504990000,19.0681183100,"https://rj.metropoliaztm.pl/rozklady/przystanek/2401011-03202/"
2718,2475011-14401,"Stare Maczki Pętla",50.2610069000,19.2912840800,"https://rj.metropoliaztm.pl/rozklady/przystanek/2475011-14401/"
5705,2466011-20801,"Gliwice Europa Centralna",50.2668900000,18.7194600000,"https://rj.metropoliaztm.pl/rozklady/przystanek/2466011-20801/"
1949,2465011-08902,"Okradzionów Skrzyżowanie",50.3520772600,19.3641757900,"https://rj.metropoliaztm.pl/rozklady/przystanek/2465011-08902/"
2328,2469011-23902,"Podlesie Uniczowska",50.1773211400,18.9666990300,"https://rj.metropoliaztm.pl/rozklady/przystanek/2469011-23902/"
3536,2474011-03502,"Siemianowice Kościół",50.3014909100,19.0337431200,"https://rj.metropoliaztm.pl/rozklady/przystanek/2474011-03502/"
970,GR16901,"granica RUDA - ŚWIĘ (Lipiny)",50.3057168180,18.8882663373,"https://rj.metropoliaztm.pl/rozklady/przystanek/GR16901/"
5431,2465011-20701,"Błędów LZS Tęcza",50.3442793400,19.4383227800,"https://rj.metropoliaztm.pl/rozklady/przystanek/2465011-20701/"
1892,2475011-06501,"Niwka Tuwima",50.2425873300,19.1652792600,"https://rj.metropoliaztm.pl/rozklady/przystanek/2475011-06501/"
8133,2405032-02901,"Paniówki Darwina nż",50.2221104500,18.7875715300,"https://rj.metropoliaztm.pl/rozklady/przystanek/2405032-02901/"
561,2475011-02002t,"Dębowa Góra Zakopiańska",50.2715543600,19.1566741200,"https://rj.metropoliaztm.pl/rozklady/przystanek/2475011-02002t/"
2805,2401062-05201,"Strzyżowice Podwale Kościół",50.3853773000,19.0716159100,"https://rj.metropoliaztm.pl/rozklady/przystanek/2401062-05201/"
1477,2471011-02501,"Kozłowa Góra Tarnogórska",50.4071725359,18.9475014317,"https://rj.metropoliaztm.pl/rozklady/przystanek/2471011-02501/"
4912,2469011-25501,"Szopienice Szpital Geriatryczny",50.2657407900,19.0924900200,"https://rj.metropoliaztm.pl/rozklady/przystanek/2469011-25501/"
3192,2414021-01601,"Imielin Wandy",50.1421940700,19.2011082100,"https://rj.metropoliaztm.pl/rozklady/przystanek/2414021-01601/"
7170,2469011-01201A,"Katowice Sądowa",50.2588172000,19.0115594600,"https://rj.metropoliaztm.pl/rozklady/przystanek/2469011-01201A/"
3569,2413041-06902,"Tarnowskie Góry Bytomska",50.4438254940,18.8603809994,"https://rj.metropoliaztm.pl/rozklady/przystanek/2413041-06902/"
3239,2469011-11402,"Kolonia Agnieszki Promienna",50.2873943400,19.0077087000,"https://rj.metropoliaztm.pl/rozklady/przystanek/2469011-11402/"
3340,2405021-00302,"Pyskowice Plac Wyszyńskiego",50.3983896800,18.6294162000,"https://rj.metropoliaztm.pl/rozklady/przystanek/2405021-00302/"
6807,2414042-02616,"Świerczyniec Barwna nż",50.0713852300,19.0465855300,"https://rj.metropoliaztm.pl/rozklady/przystanek/2414042-02616/"
4944,2401075-01401,"Gołuchowice nż",50.4408794300,19.2793047200,"https://rj.metropoliaztm.pl/rozklady/przystanek/2401075-01401/"
2338,2475011-11402t,"Sielec Park",50.2837355500,19.1385423900,"https://rj.metropoliaztm.pl/rozklady/przystanek/2475011-11402t/"
6214,2477011-22602,"Żwaków Nowa",50.1075677500,18.9612054600,"https://rj.metropoliaztm.pl/rozklady/przystanek/2477011-22602/"
3839,2413062-00102,"Niezdara",50.4502694564,18.9894045993,"https://rj.metropoliaztm.pl/rozklady/przystanek/2413062-00102/"
6192,2477011-05202,"Tychy Sokola",50.1377932600,18.9847022200,"https://rj.metropoliaztm.pl/rozklady/przystanek/2477011-05202/"
2316,2465011-09902,"Podbuczyny Cmentarz",50.4096198700,19.2508235000,"https://rj.metropoliaztm.pl/rozklady/przystanek/2465011-09902/"
5338,2470011-10501,"Larysz Storczyków nż",50.1973482800,19.1197347400,"https://rj.metropoliaztm.pl/rozklady/przystanek/2470011-10501/"
7935,2413092-02101,"Łubie Dolne nż",50.4305131100,18.6496594900,"https://rj.metropoliaztm.pl/rozklady/przystanek/2413092-02101/"
2931,2465011-02002,"Dąbrowa Górnicza Muzeum Sztygarka",50.3183489600,19.1854266300,"https://rj.metropoliaztm.pl/rozklady/przystanek/2465011-02002/"
1933,2466011-16901,"Trynek Autostrada nż",50.2661381500,18.6598024400,"https://rj.metropoliaztm.pl/rozklady/przystanek/2466011-16901/"
2493,2466011-16102,"Gliwice Michałowskiego",50.3096179000,18.6880600200,"https://rj.metropoliaztm.pl/rozklady/przystanek/2466011-16102/"
1046,2401011-05002,"Grodziec Poczta",50.3513410500,19.0828060800,"https://rj.metropoliaztm.pl/rozklady/przystanek/2401011-05002/"
4701,2466011-21202t,"Maciejów Knurowska",50.3053599800,18.7359535400,"https://rj.metropoliaztm.pl/rozklady/przystanek/2466011-21202t/"
374,2472011-01301,"Bykowina Grzegorzka",50.2649917300,18.8868391500,"https://rj.metropoliaztm.pl/rozklady/przystanek/2472011-01301/"
3197,2401011-09302,"Warpie Krakowska nż",50.3160722000,19.1574096600,"https://rj.metropoliaztm.pl/rozklady/przystanek/2401011-09302/"
187,2478011-00401,"Os. Młodego Górnika Haldex nż",50.3420914200,18.8138341600,"https://rj.metropoliaztm.pl/rozklady/przystanek/2478011-00401/"
4047,2469011-28501,"Zawodzie Ośrodek Sportowy",50.2593058700,19.0559956100,"https://rj.metropoliaztm.pl/rozklady/przystanek/2469011-28501/"
1947,2465011-08702,"Okradzionów Białej Przemszy",50.3421738800,19.3759346000,"https://rj.metropoliaztm.pl/rozklady/przystanek/2465011-08702/"
6504,2408011-00103,"Łaziska Górne Ratusz",50.1493978300,18.8394207600,"https://rj.metropoliaztm.pl/rozklady/przystanek/2408011-00103/"
4942,2401074-06401,"Sulików Słoneczna nż",50.4452963100,19.2519736200,"https://rj.metropoliaztm.pl/rozklady/przystanek/2401074-06401/"
7370,2474011-07202,"Siemianowice Fabryczna Zakłady nż",50.2958272500,19.0358352400,"https://rj.metropoliaztm.pl/rozklady/przystanek/2474011-07202/"
6781,2414042-02020,"Jedlina Bojszowska nż",50.0495960000,19.1312728600,"https://rj.metropoliaztm.pl/rozklady/przystanek/2414042-02020/"
8707,2477011-21901,"Żwaków Cmentarz",50.1041615700,18.9638125600,"https://rj.metropoliaztm.pl/rozklady/przystanek/2477011-21901/"
3211,2470011-08901,"Wesoła Mostek",50.1967164200,19.1127931800,"https://rj.metropoliaztm.pl/rozklady/przystanek/2470011-08901/"
143,2463011-01202,"Chorzów Batory Klonowa",50.2632356900,18.9364433000,"https://rj.metropoliaztm.pl/rozklady/przystanek/2463011-01202/"
8194,2478011-15802,"Mikulczyce KSSE Goduli",50.3513684300,18.8010239300,"https://rj.metropoliaztm.pl/rozklady/przystanek/2478011-15802/"
6090,2475011-20603,"Bobrek Innowacyjna",50.2613930100,19.1936850800,"https://rj.metropoliaztm.pl/rozklady/przystanek/2475011-20603/"
4340,2475011-04102t,"Konstantynów Centrum Handlowe",50.2885548800,19.1488222300,"https://rj.metropoliaztm.pl/rozklady/przystanek/2475011-04102t/"
6153,2477011-03602,"Mąkołowiec Dołowa",50.1376967000,18.9781033700,"https://rj.metropoliaztm.pl/rozklady/przystanek/2477011-03602/"
6119,2477011-19002,"Wilkowyje Gospoda",50.1460991500,18.9548003400,"https://rj.metropoliaztm.pl/rozklady/przystanek/2477011-19002/"
2535,2413031-01201,"Rojca Nieznanego Żołnierza",50.3870401073,18.8992060887,"https://rj.metropoliaztm.pl/rozklady/przystanek/2413031-01201/"
8365,2469011-21703,"Osiedle Witosa Pętla",50.2602544600,18.9643978500,"https://rj.metropoliaztm.pl/rozklady/przystanek/2469011-21703/"
816,2465011-04601,"Gołonóg Zakład Energetyczny",50.3270732100,19.2200493600,"https://rj.metropoliaztm.pl/rozklady/przystanek/2465011-04601/"
5963,2405082-01001,"Świbie Poczta",50.5120374600,18.5387642100,"https://rj.metropoliaztm.pl/rozklady/przystanek/2405082-01001/"
12,2408021-04901,"Śmiłowice Łączna",50.1924099200,18.8691520400,"https://rj.metropoliaztm.pl/rozklady/przystanek/2408021-04901/"
1802,2469011-17002,"Murcki Tartaczna nż",50.1939742100,19.0337438200,"https://rj.metropoliaztm.pl/rozklady/przystanek/2469011-17002/"
1607,2471011-03901,"Piekary Lipka",50.3995915220,18.9472443398,"https://rj.metropoliaztm.pl/rozklady/przystanek/2471011-03901/"
6336,2477011-00202,"Cielmice ks. Szojdy",50.0901090000,19.0084990000,"https://rj.metropoliaztm.pl/rozklady/przystanek/2477011-00202/"
1771,2470011-06601,"Morgi Szkoła",50.2103717300,19.1294611700,"https://rj.metropoliaztm.pl/rozklady/przystanek/2470011-06601/"
4141,2405021-01601,"Czerwionka Wytw. Mas Bitum. nż",50.3732292800,18.5967099600,"https://rj.metropoliaztm.pl/rozklady/przystanek/2405021-01601/"
3943,2412014-00101,"Czerwionka Centrum",50.1475311900,18.6756759100,"https://rj.metropoliaztm.pl/rozklady/przystanek/2412014-00101/"
7081,2478011-15501,"Zaborze Wyciska nż",50.2957108200,18.8192429700,"https://rj.metropoliaztm.pl/rozklady/przystanek/2478011-15501/"
3296,2472011-10602,"Wirek Mrówcza Górka",50.2585307900,18.8700163300,"https://rj.metropoliaztm.pl/rozklady/przystanek/2472011-10602/"
2810,2401062-05402,"Strzyżowice Skrzyżowanie",50.3874945600,19.0806771500,"https://rj.metropoliaztm.pl/rozklady/przystanek/2401062-05402/"
174,2472011-00602,"Bielszowice Most",50.2646142300,18.8226640000,"https://rj.metropoliaztm.pl/rozklady/przystanek/2472011-00602/"
4426,2475011-03301t,"Klimontów Kolonia Pstrowskiego",50.2736458000,19.1868436100,"https://rj.metropoliaztm.pl/rozklady/przystanek/2475011-03301t/"
5198,2474011-05901,"Siemianowice Budowlana nż",50.2800357172,19.0444489555,"https://rj.metropoliaztm.pl/rozklady/przystanek/2474011-05901/"
7887,2413082-01402,"Boruszowice Cmentarz",50.5168577900,18.7739121700,"https://rj.metropoliaztm.pl/rozklady/przystanek/2413082-01402/"
4917,2408021-05601,"Nowa Wygoda",50.2170142200,18.8352811100,"https://rj.metropoliaztm.pl/rozklady/przystanek/2408021-05601/"
1123,2472011-03201,"Halemba Energetyków",50.2423674700,18.8301956400,"https://rj.metropoliaztm.pl/rozklady/przystanek/2472011-03201/"
4458,2469011-25103t,"Szopienice Pętla",50.2604856300,19.1093659400,"https://rj.metropoliaztm.pl/rozklady/przystanek/2469011-25103t/"
2252,2401021-02902,"Piaski Skrzyżowanie",50.3023406800,19.0977084400,"https://rj.metropoliaztm.pl/rozklady/przystanek/2401021-02902/"
2120,2471011-03602,"Osiedle Wyzwolenia Domki Fińskie",50.3830057863,18.9325816731,"https://rj.metropoliaztm.pl/rozklady/przystanek/2471011-03602/"
7195,2470011-09803,"Wesoła Kościół",50.1986635000,19.1034054500,"https://rj.metropoliaztm.pl/rozklady/przystanek/2470011-09803/"
8709,2477011-03101,"Mąkołowiec Ziębia",50.1372976607,18.9766146292,"https://rj.metropoliaztm.pl/rozklady/przystanek/2477011-03101/"
5941,2405082-02802,"Zacharzowice Kolonia",50.4411964700,18.6116599800,"https://rj.metropoliaztm.pl/rozklady/przystanek/2405082-02802/"
9856,2470011-13202,"Mysłowice Szabelnia nż",50.2625258700,19.1305984200,"https://rj.metropoliaztm.pl/rozklady/przystanek/2470011-13202/"
1476,2413072-02101,"Orzech Kolejowa nż",50.4158204856,18.9209029581,"https://rj.metropoliaztm.pl/rozklady/przystanek/2413072-02101/"
6204,2477011-04402,"Suble Zagrodowa",50.1168910000,18.9642090000,"https://rj.metropoliaztm.pl/rozklady/przystanek/2477011-04402/"
773,2478011-09802,"Zabrze Goethego",50.3055893848,18.7826577672,"https://rj.metropoliaztm.pl/rozklady/przystanek/2478011-09802/"
7169,2469011-01202A,"Katowice Sądowa",50.2586321500,19.0110256100,"https://rj.metropoliaztm.pl/rozklady/przystanek/2469011-01202A/"
4693,2478011-11901t,"Zabrze Plac Wolności",50.3071100600,18.7861001200,"https://rj.metropoliaztm.pl/rozklady/przystanek/2478011-11901t/"
5862,2413092-08401,"Jaśkowice Osiedle",50.4163092700,18.6668493100,"https://rj.metropoliaztm.pl/rozklady/przystanek/2413092-08401/"
2551,2478011-07205,"Rokitnica Pętla",50.3636814424,18.8016165376,"https://rj.metropoliaztm.pl/rozklady/przystanek/2478011-07205/"
2693,2466011-13401,"Sośnica Zespół Szkół",50.2905248200,18.7450837800,"https://rj.metropoliaztm.pl/rozklady/przystanek/2466011-13401/"
4594,2462011-07602,"Łagiewniki Krzyżowa",50.3275800600,18.9282035600,"https://rj.metropoliaztm.pl/rozklady/przystanek/2462011-07602/"
2429,2474011-02501,"Przełajka Kościół",50.3365764000,19.0511560200,"https://rj.metropoliaztm.pl/rozklady/przystanek/2474011-02501/"
2197,2469011-11101,"Kokociniec Ogrodowa",50.2343942300,18.9550849400,"https://rj.metropoliaztm.pl/rozklady/przystanek/2469011-11101/"
1835,2472011-07802,"Nowy Bytom Zakłady Odzieżowe",50.2813062600,18.8633515300,"https://rj.metropoliaztm.pl/rozklady/przystanek/2472011-07802/"
6428,2408021-04101,"Reta Konopnickiej",50.1796015100,18.8989413900,"https://rj.metropoliaztm.pl/rozklady/przystanek/2408021-04101/"
5387,2475011-18702,"Klimontów Ogródki Działkowe",50.2747634800,19.2017566900,"https://rj.metropoliaztm.pl/rozklady/przystanek/2475011-18702/"
4729,2478011-09701t,"Zabrze Gdańska",50.3155485000,18.7849563300,"https://rj.metropoliaztm.pl/rozklady/przystanek/2478011-09701t/"
8549,2401011-01402t,"Będzin Muzeum",50.3291588800,19.1258301900,"https://rj.metropoliaztm.pl/rozklady/przystanek/2401011-01402t/"
2374,2466011-16001,"Gliwice Radiostacja",50.3143358600,18.6930423900,"https://rj.metropoliaztm.pl/rozklady/przystanek/2466011-16001/"
489,2401062-00702,"Dąbie Chrobakowe 30 nż",50.3954935500,19.1602796300,"https://rj.metropoliaztm.pl/rozklady/przystanek/2401062-00702/"
6349,2477011-09102,"Tychy Serdeczna",50.0996540300,19.0453409900,"https://rj.metropoliaztm.pl/rozklady/przystanek/2477011-09102/"
4491,2474011-03802t,"Siemianowice Mijanka",50.2949842200,19.0246987100,"https://rj.metropoliaztm.pl/rozklady/przystanek/2474011-03802t/"
6697,2414011-01403,"Bieruń Jajosty",50.0672050000,19.1151070000,"https://rj.metropoliaztm.pl/rozklady/przystanek/2414011-01403/"
6239,2477011-11102,"Tychy Stadion",50.1225933200,18.9896261400,"https://rj.metropoliaztm.pl/rozklady/przystanek/2477011-11102/"
5878,2413041-07701,"Tarnowskie Góry Hala Sportowa",50.4378871811,18.8394427618,"https://rj.metropoliaztm.pl/rozklady/przystanek/2413041-07701/"
915,GR06901,"granica CHOR - KATO (Gliwicka)",50.2740032403,18.9584116808,"https://rj.metropoliaztm.pl/rozklady/przystanek/GR06901/"
7282,2462011-03704t,"Bytom Plac Sikorskiego",50.3451483800,18.9206239000,"https://rj.metropoliaztm.pl/rozklady/przystanek/2462011-03704t/"
5550,2401031-04101,"Wojkowice Spokojna",50.3655029700,19.0258466900,"https://rj.metropoliaztm.pl/rozklady/przystanek/2401031-04101/"
9108,2463011-06702,"Chorzów Szpital Miejski",50.2921616200,18.9449746900,"https://rj.metropoliaztm.pl/rozklady/przystanek/2463011-06702/"
3147,2401042-04301,"Twardowice Wolności nż",50.4181732200,19.0769124300,"https://rj.metropoliaztm.pl/rozklady/przystanek/2401042-04301/"
125,2463011-00501,"Chorzów Batory 16 Lipca",50.2759771300,18.9404022400,"https://rj.metropoliaztm.pl/rozklady/przystanek/2463011-00501/"
1420,2414052-01601,"Kopciowice Ludowa",50.0990621700,19.2017566900,"https://rj.metropoliaztm.pl/rozklady/przystanek/2414052-01601/"
9738,2469011-40702,"Katowice Skłodowskiej Dworzec",50.2557634300,19.0154182700,"https://rj.metropoliaztm.pl/rozklady/przystanek/2469011-40702/"
8415,2414031-01802,"Górki Poczta",50.1031193200,19.1368263900,"https://rj.metropoliaztm.pl/rozklady/przystanek/2414031-01802/"
1042,2401011-04502,"Grodziec Kopalnia",50.3535522000,19.0747272700,"https://rj.metropoliaztm.pl/rozklady/przystanek/2401011-04502/"
5055,GR07001,"granica CHOR - KATO (DTŚ)",50.2742672557,18.9621303815,"https://rj.metropoliaztm.pl/rozklady/przystanek/GR07001/"
49,2413072-00302,"Świerklaniec Zajezdnia nż",50.4367712034,18.9472935104,"https://rj.metropoliaztm.pl/rozklady/przystanek/2413072-00302/"
4608,2462011-14502t,"Łagiewniki Cmentarz",50.3250677000,18.9440200400,"https://rj.metropoliaztm.pl/rozklady/przystanek/2462011-14502t/"
1906,2413072-01201,"Nowe Chechło Szkoła",50.4513529079,18.9208790752,"https://rj.metropoliaztm.pl/rozklady/przystanek/2413072-01201/"
251,2469011-07401,"Bogucice Markiefki",50.2656295500,19.0412378300,"https://rj.metropoliaztm.pl/rozklady/przystanek/2469011-07401/"
5826,2405074-02201,"Toszek",50.4541280769,18.5232998200,"https://rj.metropoliaztm.pl/rozklady/przystanek/2405074-02201/"
3058,2401011-06402,"Łagisza Dąbrowska",50.3449055300,19.1477906400,"https://rj.metropoliaztm.pl/rozklady/przystanek/2401011-06402/"
3678,2466011-07602,"Gliwice Zajezdnia",50.3049282700,18.7295484300,"https://rj.metropoliaztm.pl/rozklady/przystanek/2466011-07602/"
2040,2465011-09401,"Mydlice Wolska",50.3189922300,19.1668373400,"https://rj.metropoliaztm.pl/rozklady/przystanek/2465011-09401/"
5430,2465011-20401,"Rudy Las nż",50.3397222400,19.3930947500,"https://rj.metropoliaztm.pl/rozklady/przystanek/2465011-20401/"
2445,2405032-02501,"Przyszowice Skrzyżowanie",50.2493660100,18.7439525100,"https://rj.metropoliaztm.pl/rozklady/przystanek/2405032-02501/"
6346,2477011-08402,"Tychy Strefowa",50.0975962500,19.0310287200,"https://rj.metropoliaztm.pl/rozklady/przystanek/2477011-08402/"
1015,GR10502,"granica GIER - ZABR (Makoszowy)",50.2579413448,18.7563388634,"https://rj.metropoliaztm.pl/rozklady/przystanek/GR10502/"
4485,2469011-07602t,"Katowice Szkoła Filmowa UŚ",50.2579543300,19.0308570600,"https://rj.metropoliaztm.pl/rozklady/przystanek/2469011-07602t/"
1084,2462011-06202,"Górniki Gospoda",50.3936297600,18.7987768600,"https://rj.metropoliaztm.pl/rozklady/przystanek/2462011-06202/"
6588,2408042-00901,"Ornontowice Bujakowska",50.1675936500,18.7787294100,"https://rj.metropoliaztm.pl/rozklady/przystanek/2408042-00901/"
2200,2469011-22402,"Panewniki Stare",50.2282240400,18.9199376100,"https://rj.metropoliaztm.pl/rozklady/przystanek/2469011-22402/"
455,2401021-00201,"Czeladź Cmentarz Komunalny",50.3381953100,19.0691712100,"https://rj.metropoliaztm.pl/rozklady/przystanek/2401021-00201/"
7093,2463011-10801,"Maciejkowice Granica",50.3349546086,18.9769756818,"https://rj.metropoliaztm.pl/rozklady/przystanek/2463011-10801/"
7960,2413082-04002,"Połomia Leśniczówka nż",50.4727436100,18.7243939600,"https://rj.metropoliaztm.pl/rozklady/przystanek/2413082-04002/"
5161,2408042-01101,"Ornontowice Urząd Gminy",50.1828857800,18.7623792800,"https://rj.metropoliaztm.pl/rozklady/przystanek/2408042-01101/"
4878,2475011-12001,"Sosnowiec Aleja Zwycięstwa",50.2797276000,19.1304850300,"https://rj.metropoliaztm.pl/rozklady/przystanek/2475011-12001/"
3994,2414011-01909,"Bieruń Osiedle",50.0786426500,19.1715550200,"https://rj.metropoliaztm.pl/rozklady/przystanek/2414011-01909/"
6532,2408021-07401,"Mokre Łączna",50.1851285200,18.8695812000,"https://rj.metropoliaztm.pl/rozklady/przystanek/2408021-07401/"
5584,2405021-02401,"Pyskowice Specjalista nż",50.3811045500,18.6327159400,"https://rj.metropoliaztm.pl/rozklady/przystanek/2405021-02401/"
1733,2478011-04501,"Mikulczyce Gogolińska",50.3412766000,18.7855851400,"https://rj.metropoliaztm.pl/rozklady/przystanek/2478011-04501/"
6768,2414042-01020,"Bojszowy Nowe Szkoła",50.0515284400,19.0520679700,"https://rj.metropoliaztm.pl/rozklady/przystanek/2414042-01020/"
6367,2477011-20001,"Wygorzele Rymarska",50.1312690000,19.0479410000,"https://rj.metropoliaztm.pl/rozklady/przystanek/2477011-20001/"
3215,2470011-05801,"Ławki Kasprowicza",50.1750566700,19.1103422600,"https://rj.metropoliaztm.pl/rozklady/przystanek/2470011-05801/"
3611,2466011-04301,"Gliwice Łużycka",50.2914173000,18.6720869600,"https://rj.metropoliaztm.pl/rozklady/przystanek/2466011-04301/"
2537,2413031-01501,"Rojca Muzeum Chleba nż",50.3804272300,18.9032757200,"https://rj.metropoliaztm.pl/rozklady/przystanek/2413031-01501/"
2986,2474011-03601,"Siemianowice Michałkowicka",50.3126298900,19.0122854500,"https://rj.metropoliaztm.pl/rozklady/przystanek/2474011-03601/"
196,2478011-00801t,"Biskupice Młyńska",50.3180315200,18.8163828800,"https://rj.metropoliaztm.pl/rozklady/przystanek/2478011-00801t/"
3135,2465011-14902,"Tucznawa Droga do Sikorki",50.3867553200,19.3048024100,"https://rj.metropoliaztm.pl/rozklady/przystanek/2465011-14902/"
5789,2413082-03202,"Świniowice Skrzyżowanie",50.5169373100,18.6622973000,"https://rj.metropoliaztm.pl/rozklady/przystanek/2413082-03202/"
526,2469011-03501,"Dąbrówka Mała Le Ronda",50.2743399900,19.0567612700,"https://rj.metropoliaztm.pl/rozklady/przystanek/2469011-03501/"
2413,2474011-04401,"Siemianowice Powstańców",50.2986262600,19.0402555200,"https://rj.metropoliaztm.pl/rozklady/przystanek/2474011-04401/"
3806,2413021-01001,"Bibiela Leśniczówka",50.4920801912,19.0003204679,"https://rj.metropoliaztm.pl/rozklady/przystanek/2413021-01001/"
5651,2462011-12401,"Szombierki Elektrownia",50.3380042300,18.8845969400,"https://rj.metropoliaztm.pl/rozklady/przystanek/2462011-12401/"
6117,GR21901,"granica TYCH - MIKO (Wilkowyje)",50.1556904764,18.9322936740,"https://rj.metropoliaztm.pl/rozklady/przystanek/GR21901/"
7382,2466011-05202,"Gliwice Plac Piastów",50.2985091300,18.6775788300,"https://rj.metropoliaztm.pl/rozklady/przystanek/2466011-05202/"
2008,2466011-09601,"Osiedle Wojska Polskiego Czwartaków",50.2993321600,18.6429667200,"https://rj.metropoliaztm.pl/rozklady/przystanek/2466011-09601/"
3835,2413062-00302,"Tąpkowice Szkoła",50.4479942169,19.0132705936,"https://rj.metropoliaztm.pl/rozklady/przystanek/2413062-00302/"
3558,2462011-01214,"Bytom Dworzec",50.3440702100,18.9131617300,"https://rj.metropoliaztm.pl/rozklady/przystanek/2462011-01214/"
2695,2466011-13601,"Sośnica Michała",50.2894489200,18.7373006300,"https://rj.metropoliaztm.pl/rozklady/przystanek/2466011-13601/"
1691,2462011-08604,"Miechowice Francuska",50.3601673700,18.8386519200,"https://rj.metropoliaztm.pl/rozklady/przystanek/2462011-08604/"
6730,2479011-00603,"Żory Mikołowska - Boczna",50.0564978700,18.7137019400,"https://rj.metropoliaztm.pl/rozklady/przystanek/2479011-00603/"
3550,2475011-14002,"Sosnowiec Urząd Miasta",50.2778969700,19.1347443800,"https://rj.metropoliaztm.pl/rozklady/przystanek/2475011-14002/"
6951,GR24001,"granica KNUR - GLIW (Szpitalna)",50.2367794829,18.6404311642,"https://rj.metropoliaztm.pl/rozklady/przystanek/GR24001/"
2161,2475011-07601,"Ostrowy Górnicze Kolonia Leśna Sklep",50.2801458200,19.2707538300,"https://rj.metropoliaztm.pl/rozklady/przystanek/2475011-07601/"
132,2463011-00801,"Chorzów Batory Dworzec PKP",50.2799127100,18.9428055000,"https://rj.metropoliaztm.pl/rozklady/przystanek/2463011-00801/"
5317,2465011-21101,"Dąbrowa Górnicza Długosza nż",50.3337302900,19.1952979300,"https://rj.metropoliaztm.pl/rozklady/przystanek/2465011-21101/"
2144,2475011-13202t,"Sosnowiec Ostrogórska",50.2733509400,19.1357421600,"https://rj.metropoliaztm.pl/rozklady/przystanek/2475011-13202t/"
1358,2472011-06002,"Kochłowice Osiedle",50.2548335400,18.9124274200,"https://rj.metropoliaztm.pl/rozklady/przystanek/2472011-06002/"
5718,2466011-20702,"Stare Łabędy Einsteina",50.3337439900,18.6046862300,"https://rj.metropoliaztm.pl/rozklady/przystanek/2466011-20702/"
7883,2413082-00502,"Nowa Wieś Spółdzielnia",50.5297874900,18.7429456900,"https://rj.metropoliaztm.pl/rozklady/przystanek/2413082-00502/"
2068,2471011-02801,"Osiedle Powstańców Parking",50.3665397260,18.9996910845,"https://rj.metropoliaztm.pl/rozklady/przystanek/2471011-02801/"
7945,2413092-00301,"Laryszów II",50.4491783000,18.7818174400,"https://rj.metropoliaztm.pl/rozklady/przystanek/2413092-00301/"
2046,2465011-09201,"Mydlice Ludowa",50.3186378500,19.1691104200,"https://rj.metropoliaztm.pl/rozklady/przystanek/2465011-09201/"
4911,2469011-25002,"Szopienice Osiedlowa",50.2646333400,19.1041954200,"https://rj.metropoliaztm.pl/rozklady/przystanek/2469011-25002/"
3371,2465011-17402,"Ząbkowice Kusocińskiego",50.3752174400,19.2473971600,"https://rj.metropoliaztm.pl/rozklady/przystanek/2465011-17402/"
5980,2405082-00902,"Radonia Boisko",50.5267179400,18.5702089900,"https://rj.metropoliaztm.pl/rozklady/przystanek/2405082-00902/"
8647,2475011-22402t,"Zagórze Centrum Przesiadkowe",50.2939287000,19.1832294000,"https://rj.metropoliaztm.pl/rozklady/przystanek/2475011-22402t/"
164,2472011-00201,"Bielszowice Fińskie Domki",50.2648820000,18.8096666300,"https://rj.metropoliaztm.pl/rozklady/przystanek/2472011-00201/"
1619,2463011-08401,"Maciejkowice Spółdzielnia",50.3223746300,18.9751911100,"https://rj.metropoliaztm.pl/rozklady/przystanek/2463011-08401/"
1745,2475011-05301t,"Milowice Podjazdowa",50.2899764500,19.0934169000,"https://rj.metropoliaztm.pl/rozklady/przystanek/2475011-05301t/"
101,2401011-00201,"Będzin Aleja Kołłątaja",50.3252512500,19.1378450100,"https://rj.metropoliaztm.pl/rozklady/przystanek/2401011-00201/"
1604,2476011-00601t,"Lipiny Bukowego",50.3088546100,18.9039885700,"https://rj.metropoliaztm.pl/rozklady/przystanek/2476011-00601t/"
8842,2465011-23901,"Dąbrowa Górnicza Zawidzkiej",50.3310261800,19.2035677600,"https://rj.metropoliaztm.pl/rozklady/przystanek/2465011-23901/"
6392,2477011-22801,"Jaroszowice Samochodowa II",50.1107958664,19.0704320945,"https://rj.metropoliaztm.pl/rozklady/przystanek/2477011-22801/"
5034,2401011-05102,"Grodziec Podgórna nż",50.3481097000,19.0940713600,"https://rj.metropoliaztm.pl/rozklady/przystanek/2401011-05102/"
4122,2465011-13902,"Strzemieszyce Taśmociąg nż",50.3062370900,19.3187546500,"https://rj.metropoliaztm.pl/rozklady/przystanek/2465011-13902/"
4872,2466011-15401,"Stare Łabędy SSE",50.3245704100,18.6129045200,"https://rj.metropoliaztm.pl/rozklady/przystanek/2466011-15401/"
5180,2408052-00801,"Wyry Tereny Przemysłowe",50.1418747400,18.8966178600,"https://rj.metropoliaztm.pl/rozklady/przystanek/2408052-00801/"
5569,2401011-08202,"Osiedle Syberka Śmigielskiego",50.3224793800,19.1115022000,"https://rj.metropoliaztm.pl/rozklady/przystanek/2401011-08202/"
8793,2469011-39702,"Ochojec Spółdzielczości",50.2098395600,18.9896046900,"https://rj.metropoliaztm.pl/rozklady/przystanek/2469011-39702/"
1014,GR10501,"granica GIER - ZABR (Makoszowy)",50.2577149683,18.7560494594,"https://rj.metropoliaztm.pl/rozklady/przystanek/GR10501/"
8097,2401021-02104,"Czeladź Strefa Ekonomiczna",50.3204878100,19.0910565600,"https://rj.metropoliaztm.pl/rozklady/przystanek/2401021-02104/"
4323,2475011-12101t,"Sosnowiec Brynica",50.2743657800,19.1144346900,"https://rj.metropoliaztm.pl/rozklady/przystanek/2475011-12101t/"
1064,2401062-00402,"Brzękowice Chopina nż",50.4078000000,19.0944900000,"https://rj.metropoliaztm.pl/rozklady/przystanek/2401062-00402/"
3213,2470011-08903,"Wesoła Mostek",50.1969705400,19.1122996500,"https://rj.metropoliaztm.pl/rozklady/przystanek/2470011-08903/"
3409,2475011-16701,"Zagórze Mec",50.2970499500,19.1845261800,"https://rj.metropoliaztm.pl/rozklady/przystanek/2475011-16701/"
7180,2405021-03701,"Pyskowice Jaśkowicka Ogródki Działkowe nż",50.4106926156,18.6484782807,"https://rj.metropoliaztm.pl/rozklady/przystanek/2405021-03701/"
4716,2478011-08702t,"Zabrze Brysza",50.3031465800,18.7902843700,"https://rj.metropoliaztm.pl/rozklady/przystanek/2478011-08702t/"
7904,GR73301,"granica MIAS - ŚWIE (Brynica)",50.4701505539,18.9883228466,"https://rj.metropoliaztm.pl/rozklady/przystanek/GR73301/"
6027,2405064-00301,"Sośnicowice Gliwicka",50.2712500000,18.5329200000,"https://rj.metropoliaztm.pl/rozklady/przystanek/2405064-00301/"
2050,2462011-09901,"Osiedle Ziętka Szymały",50.3931372900,18.8861203100,"https://rj.metropoliaztm.pl/rozklady/przystanek/2462011-09901/"
6593,2408031-01001,"Orzesze Apteka",50.1428813700,18.7745344400,"https://rj.metropoliaztm.pl/rozklady/przystanek/2408031-01001/"
6138,2477011-02801,"Mąkołowiec Łabędzia",50.1451709700,18.9742731800,"https://rj.metropoliaztm.pl/rozklady/przystanek/2477011-02801/"
5819,2405082-03702,"Kieleczka Przejazd Kolejowy nż",50.5325413000,18.6053220000,"https://rj.metropoliaztm.pl/rozklady/przystanek/2405082-03702/"
3095,2465011-20202,"Łosień Poboczna",50.3512767100,19.3373906400,"https://rj.metropoliaztm.pl/rozklady/przystanek/2465011-20202/"
6905,2475011-04701,"Milowice Park Logistyczny",50.2875155500,19.1021394500,"https://rj.metropoliaztm.pl/rozklady/przystanek/2475011-04701/"
9732,2413092-08731,"Wieszowa Wojska Polskiego",50.3819691531,18.7614413646,"https://rj.metropoliaztm.pl/rozklady/przystanek/2413092-08731/"
6277,2477011-11402,"Tychy Filaretów",50.1160924500,19.0021145100,"https://rj.metropoliaztm.pl/rozklady/przystanek/2477011-11402/"
1099,2401031-00801,"Wojkowice Głowackiego 31 nż",50.3645379900,19.0542459200,"https://rj.metropoliaztm.pl/rozklady/przystanek/2401031-00801/"
1289,2475011-02901,"Kazimierz Górniczy Kopalnia",50.2930198300,19.2385136800,"https://rj.metropoliaztm.pl/rozklady/przystanek/2475011-02901/"
6255,2477011-13501,"Tychy Hala Sportowa",50.1071204800,18.9873087100,"https://rj.metropoliaztm.pl/rozklady/przystanek/2477011-13501/"
5229,2465011-19902,"Antoniów Spacerowa",50.3723055000,19.2298507600,"https://rj.metropoliaztm.pl/rozklady/przystanek/2465011-19902/"
6012,2413092-06201,"Wieszowa Skrzyżowanie",50.3855565200,18.7521695000,"https://rj.metropoliaztm.pl/rozklady/przystanek/2413092-06201/"
2411,2474011-04501,"Siemianowice Powstańców Pętla",50.2968203900,19.0426541500,"https://rj.metropoliaztm.pl/rozklady/przystanek/2474011-04501/"
402,2469011-07301,"Katowice Francuska WORD",50.2443026700,19.0245544900,"https://rj.metropoliaztm.pl/rozklady/przystanek/2469011-07301/"
5711,2405042-01502,"Pilchowice Ośrodek Zdrowia nż",50.2126995500,18.5643464300,"https://rj.metropoliaztm.pl/rozklady/przystanek/2405042-01502/"
4289,2476011-00801t,"Lipiny Mijanka",50.3078226800,18.8999330700,"https://rj.metropoliaztm.pl/rozklady/przystanek/2476011-00801t/"
2592,2475011-08501,"Pogoń Grota-Roweckiego",50.2865901100,19.1245305300,"https://rj.metropoliaztm.pl/rozklady/przystanek/2475011-08501/"
2091,2401011-08501,"Osiedle Syberka Pawilony",50.3202138000,19.1181361400,"https://rj.metropoliaztm.pl/rozklady/przystanek/2401011-08501/"
8575,2475011-03104,"Kazimierz Górniczy Poczta",50.2949979300,19.2437064400,"https://rj.metropoliaztm.pl/rozklady/przystanek/2475011-03104/"
3808,2478011-06801,"Rokitnica Boczna nż",50.3583439100,18.7963476400,"https://rj.metropoliaztm.pl/rozklady/przystanek/2478011-06801/"
8612,2469011-37901,"Piotrowice Osiedle Żurawia",50.2082771800,18.9666035000,"https://rj.metropoliaztm.pl/rozklady/przystanek/2469011-37901/"
6513,2408011-03001,"Łaziska Górne Cieszyńska",50.1381663900,18.8333114300,"https://rj.metropoliaztm.pl/rozklady/przystanek/2408011-03001/"
200,2478011-00902,"Biskupice Ogródki Działkowe nż",50.3182710000,18.8037812500,"https://rj.metropoliaztm.pl/rozklady/przystanek/2478011-00902/"
5370,2469011-32402,"Wełnowiec GPP BUSINESS PARK",50.2829834300,19.0279276400,"https://rj.metropoliaztm.pl/rozklady/przystanek/2469011-32402/"
2358,2475011-08701,"Pogoń Kościół",50.2901227000,19.1328096700,"https://rj.metropoliaztm.pl/rozklady/przystanek/2475011-08701/"
5612,2465011-20201,"Łosień Poboczna",50.3512151000,19.3376481300,"https://rj.metropoliaztm.pl/rozklady/przystanek/2465011-20201/"
4537,2463011-01601t,"Chorzów Batory Piekarska",50.2760117100,18.9501607400,"https://rj.metropoliaztm.pl/rozklady/przystanek/2463011-01601t/"
404,2413062-04502,"Celiny Autostrada",50.4490651947,19.0505306537,"https://rj.metropoliaztm.pl/rozklady/przystanek/2413062-04502/"
8239,2469011-23005,"Piotrowice Fabryka Maszyn",50.2128244800,18.9730841800,"https://rj.metropoliaztm.pl/rozklady/przystanek/2469011-23005/"
3297,2472011-10701,"Wirek Odrodzenia",50.2714265000,18.8723930400,"https://rj.metropoliaztm.pl/rozklady/przystanek/2472011-10701/"
4347,2475011-12901t,"Sosnowiec Małachowskiego",50.2757186500,19.1327331300,"https://rj.metropoliaztm.pl/rozklady/przystanek/2475011-12901t/"
5405,2401011-10702,"Podleśna nż",50.3521559900,19.1767644800,"https://rj.metropoliaztm.pl/rozklady/przystanek/2401011-10702/"
7957,2413092-00602,"Miedary Kopanina",50.4595309000,18.7615729900,"https://rj.metropoliaztm.pl/rozklady/przystanek/2413092-00602/"
7397,GR19802,"granica WOJK - PIEK (Dąbrówka Wlk.)",50.3614683728,19.0130401944,"https://rj.metropoliaztm.pl/rozklady/przystanek/GR19802/"
6636,2408031-02002,"Zazdrość Las",50.1154381300,18.7620037200,"https://rj.metropoliaztm.pl/rozklady/przystanek/2408031-02002/"
6112,2477011-10602,"Tychy Dmowskiego",50.1105470900,18.9834248800,"https://rj.metropoliaztm.pl/rozklady/przystanek/2477011-10602/"
3416,2475011-16904,"Zagórze Osiedle",50.2897022600,19.1802990200,"https://rj.metropoliaztm.pl/rozklady/przystanek/2475011-16904/"
3986,2469011-04701,"Giszowiec Kolista Pętla",50.2286759700,19.0599011600,"https://rj.metropoliaztm.pl/rozklady/przystanek/2469011-04701/"
4522,2469011-10301,"Katowice Sobieskiego",50.2603415900,19.0116262400,"https://rj.metropoliaztm.pl/rozklady/przystanek/2469011-10301/"
4365,2465011-01302,"Dąbrowa Górnicza Huta Bankowa",50.3249704200,19.1746985700,"https://rj.metropoliaztm.pl/rozklady/przystanek/2465011-01302/"
871,GR05401,"granica BYTO - TARN (Repty)",50.4052113503,18.8124101822,"https://rj.metropoliaztm.pl/rozklady/przystanek/GR05401/"
3127,2462011-02501,"Bytom Łużycka",50.3510264300,18.8941776700,"https://rj.metropoliaztm.pl/rozklady/przystanek/2462011-02501/"
8412,2401062-06202,"Strzyżowice Stadion nż",50.3911062700,19.0750361700,"https://rj.metropoliaztm.pl/rozklady/przystanek/2401062-06202/"
466,2466011-01601,"Czechowice Skrzyżowanie",50.3638207600,18.6393747400,"https://rj.metropoliaztm.pl/rozklady/przystanek/2466011-01601/"
9099,2413082-02702,"Tworóg nż",50.5393676574,18.7092910483,"https://rj.metropoliaztm.pl/rozklady/przystanek/2413082-02702/"
2649,2401042-03602,"Siemonia Kościuszki nż",50.4235304900,19.0464198500,"https://rj.metropoliaztm.pl/rozklady/przystanek/2401042-03602/"
617,2401042-01402,"Dobieszowice Skrzyżowanie",50.3962353300,19.0163624000,"https://rj.metropoliaztm.pl/rozklady/przystanek/2401042-01402/"
1575,2465011-08601,"Marianki Letnia nż",50.3538400000,19.1904330200,"https://rj.metropoliaztm.pl/rozklady/przystanek/2465011-08601/"
5358,2465011-19801,"Kolonia Piekło Kostury",50.3687744800,19.2217397600,"https://rj.metropoliaztm.pl/rozklady/przystanek/2465011-19801/"
5257,2401021-01902,"Czeladź Stare Miasto",50.3192529300,19.0704644000,"https://rj.metropoliaztm.pl/rozklady/przystanek/2401021-01902/"
1085,2462011-06301,"Górniki Pętla",50.3923712300,18.7969636900,"https://rj.metropoliaztm.pl/rozklady/przystanek/2462011-06301/"
458,2470011-07002,"Mysłowice Cmentarz",50.2376121900,19.1317510300,"https://rj.metropoliaztm.pl/rozklady/przystanek/2470011-07002/"
3546,2475011-12302t,"Sosnowiec Dworzec PKP",50.2783083500,19.1270947200,"https://rj.metropoliaztm.pl/rozklady/przystanek/2475011-12302t/"
7973,2463011-11101,"Chorzów Racławicka OPS",50.2804680600,18.9478480600,"https://rj.metropoliaztm.pl/rozklady/przystanek/2463011-11101/"
545,2471011-01802,"Dołki Szybowa nż",50.3537195750,19.0154130260,"https://rj.metropoliaztm.pl/rozklady/przystanek/2471011-01802/"
4621,2462011-01902t,"Bytom Kąpielisko",50.3499759800,18.9035808800,"https://rj.metropoliaztm.pl/rozklady/przystanek/2462011-01902t/"
4075,2465011-23602,"Gołonóg 11 Listopada",50.3292906500,19.2238450500,"https://rj.metropoliaztm.pl/rozklady/przystanek/2465011-23602/"
4513,2469011-05702t,"Chorzów Stadion Śląski",50.2875076600,18.9679240200,"https://rj.metropoliaztm.pl/rozklady/przystanek/2469011-05702t/"
3396,2475011-15801,"Zagórze Dmowskiego",50.3033206300,19.1907703600,"https://rj.metropoliaztm.pl/rozklady/przystanek/2475011-15801/"
2188,2469011-11002,"Kokociniec Kijowska",50.2363112500,18.9649415300,"https://rj.metropoliaztm.pl/rozklady/przystanek/2469011-11002/"
5793,2413082-03301,"Świniowice Osiedle",50.5165344400,18.6506807500,"https://rj.metropoliaztm.pl/rozklady/przystanek/2413082-03301/"
2748,2466011-14902,"Stare Gliwice Ogródki Działkowe",50.3051578800,18.6290724400,"https://rj.metropoliaztm.pl/rozklady/przystanek/2466011-14902/"
69,2401031-01902,"Żychcice Alfred",50.3665500600,19.0273916500,"https://rj.metropoliaztm.pl/rozklady/przystanek/2401031-01902/"
290,2469011-24002,"Brynów Orkana",50.2313877800,18.9886881100,"https://rj.metropoliaztm.pl/rozklady/przystanek/2469011-24002/"
4109,2401052-04601,"Mrowieniec",50.4193291797,19.1793182349,"https://rj.metropoliaztm.pl/rozklady/przystanek/2401052-04601/"
5483,2469011-33001,"Piotrowice Działowa",50.2008748500,18.9716357600,"https://rj.metropoliaztm.pl/rozklady/przystanek/2469011-33001/"
7101,2469011-38901,"Podlesie Tarninowa nż",50.1886251000,18.9613878500,"https://rj.metropoliaztm.pl/rozklady/przystanek/2469011-38901/"
573,2475011-00502,"Dańdówka Dworzec PKP",50.2660616100,19.1749620400,"https://rj.metropoliaztm.pl/rozklady/przystanek/2475011-00502/"
2284,2463011-06202,"Chorzów Stary Plac Jana",50.3095562300,18.9736723600,"https://rj.metropoliaztm.pl/rozklady/przystanek/2463011-06202/"
7869,2477011-16801,"Urbanowice Dom Opieki",50.1088090000,19.0525030000,"https://rj.metropoliaztm.pl/rozklady/przystanek/2477011-16801/"
8515,2466011-23829,"Gliwice Centrum Przesiadkowe [tech]",50.3040897752,18.6750936128,"https://rj.metropoliaztm.pl/rozklady/przystanek/2466011-23829/"
4400,2475011-05402,"Milowice Zakłady Mięsne",50.2893803800,19.0871143300,"https://rj.metropoliaztm.pl/rozklady/przystanek/2475011-05402/"
4724,2478011-12602t,"Guido Kopalnia Zabytkowa",50.2909196500,18.7919258800,"https://rj.metropoliaztm.pl/rozklady/przystanek/2478011-12602t/"
2485,2478011-06501,"Zaborze Pyki",50.3016416800,18.8413107100,"https://rj.metropoliaztm.pl/rozklady/przystanek/2478011-06501/"
3431,2463011-06602,"Chorzów Stary Zakłady Azotowe",50.3171885900,18.9810323500,"https://rj.metropoliaztm.pl/rozklady/przystanek/2463011-06602/"
6776,2410032-00204,"Wola Dom Kultury",50.0162742800,19.1168272200,"https://rj.metropoliaztm.pl/rozklady/przystanek/2410032-00204/"
1792,2469011-16401,"Murcki Kołodzieja",50.1933805200,19.0379050500,"https://rj.metropoliaztm.pl/rozklady/przystanek/2469011-16401/"
1483,2471011-02601,"Kozłowa Góra Zapora nż",50.4160496912,18.9615656222,"https://rj.metropoliaztm.pl/rozklady/przystanek/2471011-02601/"
3545,2475011-12302,"Sosnowiec Dworzec PKP",50.2779902300,19.1269874300,"https://rj.metropoliaztm.pl/rozklady/przystanek/2475011-12302/"
2715,2474011-04802,"Siemianowice Korfantego",50.3020295700,19.0113305800,"https://rj.metropoliaztm.pl/rozklady/przystanek/2474011-04802/"
8384,2478011-18001,"Grzybowice Handlowa Zachód",50.3543120500,18.7564670800,"https://rj.metropoliaztm.pl/rozklady/przystanek/2478011-18001/"
3388,2405011-01601,"Krywałd Rybnicka",50.2145017900,18.6470282000,"https://rj.metropoliaztm.pl/rozklady/przystanek/2405011-01601/"
287,2477011-09402,"Tychy Browar",50.1308264900,18.9912032800,"https://rj.metropoliaztm.pl/rozklady/przystanek/2477011-09402/"
5344,2401062-05702,"Góra Siewierska Droga do Twardowic nż",50.4062610700,19.0861058200,"https://rj.metropoliaztm.pl/rozklady/przystanek/2401062-05702/"
2094,2401011-08402,"Osiedle Syberka Ośrodek Zdrowia",50.3237991100,19.1183078000,"https://rj.metropoliaztm.pl/rozklady/przystanek/2401011-08402/"
3797,2413021-00402,"Miasteczko Śląskie Droga do Huty nż",50.4954420087,18.9272108409,"https://rj.metropoliaztm.pl/rozklady/przystanek/2413021-00402/"
623,2413092-06601,"Zbrosławice Dom Opieki",50.4133757900,18.7368547700,"https://rj.metropoliaztm.pl/rozklady/przystanek/2413092-06601/"
4366,2465011-01302t,"Dąbrowa Górnicza Huta Bankowa",50.3250764200,19.1744348900,"https://rj.metropoliaztm.pl/rozklady/przystanek/2465011-01302t/"
2653,2401042-03902,"Siemonia Piekarnia nż",50.4272313000,19.0558952300,"https://rj.metropoliaztm.pl/rozklady/przystanek/2401042-03902/"
1821,2472011-07401t,"Nowy Bytom Osiedle Kaufhaus",50.2942261600,18.8752031100,"https://rj.metropoliaztm.pl/rozklady/przystanek/2472011-07401t/"
2780,2462011-11102,"Stolarzowice Suchogórska nż",50.3965434000,18.8314354400,"https://rj.metropoliaztm.pl/rozklady/przystanek/2462011-11102/"
3123,2465011-14601,"Trzebiesławice Modrzewiowa",50.4256425900,19.2610394900,"https://rj.metropoliaztm.pl/rozklady/przystanek/2465011-14601/"
3736,2413092-00502,"Miedary Szkoła",50.4528579500,18.7640286700,"https://rj.metropoliaztm.pl/rozklady/przystanek/2413092-00502/"
648,2475011-10902,"Sielec Droga do Środuli nż",50.2879149200,19.1574503800,"https://rj.metropoliaztm.pl/rozklady/przystanek/2475011-10902/"
2006,2413041-04201,"Tarnowskie Góry Osiedle Fazos",50.4527789822,18.8396141564,"https://rj.metropoliaztm.pl/rozklady/przystanek/2413041-04201/"
8463,2478011-20601,"Grzybowice Handlowa Wschód",50.3525322100,18.7670886300,"https://rj.metropoliaztm.pl/rozklady/przystanek/2478011-20601/"
3793,2413041-02301,"Pniowiec Dom Nauczyciela",50.4914133412,18.8110193573,"https://rj.metropoliaztm.pl/rozklady/przystanek/2413041-02301/"
5876,2413041-07401,"Tarnowskie Góry Park Wodny",50.4394380511,18.8372539686,"https://rj.metropoliaztm.pl/rozklady/przystanek/2413041-07401/"
8648,2478011-20901,"Grzybowice Przy Ujęciu",50.3614737509,18.7521467203,"https://rj.metropoliaztm.pl/rozklady/przystanek/2478011-20901/"
3226,2469011-06902,"Józefowiec Ściegiennego",50.2776598100,19.0085291400,"https://rj.metropoliaztm.pl/rozklady/przystanek/2469011-06902/"
4361,2465011-02501t,"Gołonóg Centrum",50.3346640200,19.2255989900,"https://rj.metropoliaztm.pl/rozklady/przystanek/2465011-02501t/"
5384,2475011-09603,"Porąbka Łukasiewicza",50.2799469900,19.2227422900,"https://rj.metropoliaztm.pl/rozklady/przystanek/2475011-09603/"
3204,2466011-07201,"Gliwice Warszawska",50.3055411700,18.6780023500,"https://rj.metropoliaztm.pl/rozklady/przystanek/2466011-07201/"
3636,2401021-02001,"Czeladź Urząd Miasta",50.3163048400,19.0704679200,"https://rj.metropoliaztm.pl/rozklady/przystanek/2401021-02001/"
420,GR06402,"granica CHEŁ - LĘDZ (Goławiec)",50.1083024888,19.1738841835,"https://rj.metropoliaztm.pl/rozklady/przystanek/GR06402/"
7157,2413041-01402,"Sowice Czarna Huta",50.4602933435,18.8668799451,"https://rj.metropoliaztm.pl/rozklady/przystanek/2413041-01402/"
4969,2401075-04401,"Wojkowice Kościelne Piastowska Skład Złomu",50.4083007300,19.2118060900,"https://rj.metropoliaztm.pl/rozklady/przystanek/2401075-04401/"
6474,2408011-01601,"Łaziska Średnie Zwycięstwa",50.1424138100,18.8654505900,"https://rj.metropoliaztm.pl/rozklady/przystanek/2408011-01601/"
5697,2476011-04502,"Świętochłowice Sikorskiego Szkoła",50.2935270500,18.9104795200,"https://rj.metropoliaztm.pl/rozklady/przystanek/2476011-04502/"
6256,2477011-12002,"Tychy Piłsudskiego",50.1042303800,18.9928984400,"https://rj.metropoliaztm.pl/rozklady/przystanek/2477011-12002/"
4658,2462011-12701t,"Szombierki Kolonia Górnicza",50.3393113900,18.9042567900,"https://rj.metropoliaztm.pl/rozklady/przystanek/2462011-12701t/"
3447,2414031-04202,"Zamoście Posesja 30",50.1394779900,19.0911859200,"https://rj.metropoliaztm.pl/rozklady/przystanek/2414031-04202/"
3642,2401021-01601,"Czeladź Szpital",50.3272398900,19.0739727300,"https://rj.metropoliaztm.pl/rozklady/przystanek/2401021-01601/"
9009,2476011-04701t,"Chropaczów Osiedle Wiechaczka",50.3180278100,18.9208328500,"https://rj.metropoliaztm.pl/rozklady/przystanek/2476011-04701t/"
496,2401062-01001,"Dąbie Garbacz",50.4124968400,19.1297721800,"https://rj.metropoliaztm.pl/rozklady/przystanek/2401062-01001/"
6615,2408031-02201,"Woszczyce Szkoła",50.0842013200,18.7639236200,"https://rj.metropoliaztm.pl/rozklady/przystanek/2408031-02201/"
4092,2475011-02501,"Józefów Auchan",50.3057535900,19.1665506300,"https://rj.metropoliaztm.pl/rozklady/przystanek/2475011-02501/"
1144,2472011-04002,"Halemba Nowy Świat",50.2545042700,18.8393747800,"https://rj.metropoliaztm.pl/rozklady/przystanek/2472011-04002/"
5515,2466011-20301,"Trynek Asnyka",50.2765297900,18.6716019800,"https://rj.metropoliaztm.pl/rozklady/przystanek/2466011-20301/"
1682,2474011-01402,"Michałkowice Bytomska",50.3279088200,18.9976513100,"https://rj.metropoliaztm.pl/rozklady/przystanek/2474011-01402/"
2590,2475011-10501,"Rudna Gospodarcza II",50.2948156000,19.1211294900,"https://rj.metropoliaztm.pl/rozklady/przystanek/2475011-10501/"
759,2472011-02701,"Godula Osiedle",50.3152363800,18.8775694300,"https://rj.metropoliaztm.pl/rozklady/przystanek/2472011-02701/"
2205,2401031-01501,"Wojkowice Park",50.3651813100,19.0364038700,"https://rj.metropoliaztm.pl/rozklady/przystanek/2401031-01501/"
1453,2401011-05701t,"Koszelew",50.3221989800,19.1566633900,"https://rj.metropoliaztm.pl/rozklady/przystanek/2401011-05701t/"
1309,2475011-03401,"Klimontów Basen",50.2758646900,19.1946542000,"https://rj.metropoliaztm.pl/rozklady/przystanek/2475011-03401/"
5253,2469011-01301,"Katowice Mikołowska Sąd",50.2568184400,19.0130219300,"https://rj.metropoliaztm.pl/rozklady/przystanek/2469011-01301/"
6733,2479011-00201,"Żory Dworcowa",50.0476732100,18.6993145700,"https://rj.metropoliaztm.pl/rozklady/przystanek/2479011-00201/"
8376,2478011-17802,"Grzybowice Kościół",50.3616870849,18.7612769944,"https://rj.metropoliaztm.pl/rozklady/przystanek/2478011-17802/"
2317,2465011-09903,"Podbuczyny Cmentarz",50.4092715400,19.2485152900,"https://rj.metropoliaztm.pl/rozklady/przystanek/2465011-09903/"
3072,2401011-09202,"Podłosie nż",50.3494386300,19.1753142800,"https://rj.metropoliaztm.pl/rozklady/przystanek/2401011-09202/"
6401,2477011-17902,"Wartogłowiec Beskidzka",50.1260188200,19.0233790600,"https://rj.metropoliaztm.pl/rozklady/przystanek/2477011-17902/"
4344,2475011-11502t,"Sielec Szkolna",50.2815602600,19.1479864600,"https://rj.metropoliaztm.pl/rozklady/przystanek/2475011-11502t/"
1063,2401062-00401,"Brzękowice Chopina nż",50.4076800000,19.0944600000,"https://rj.metropoliaztm.pl/rozklady/przystanek/2401062-00401/"
2184,2469011-21902,"Panewniki Bałtycka",50.2277710400,18.9282846400,"https://rj.metropoliaztm.pl/rozklady/przystanek/2469011-21902/"
1130,2472011-03502,"Halemba Kościół",50.2451809100,18.8434195500,"https://rj.metropoliaztm.pl/rozklady/przystanek/2472011-03502/"
375,2472011-01401,"Bykowina Gwarecka",50.2680021300,18.8948905200,"https://rj.metropoliaztm.pl/rozklady/przystanek/2472011-01401/"
571,2475011-00501,"Dańdówka Dworzec PKP",50.2659313100,19.1747152800,"https://rj.metropoliaztm.pl/rozklady/przystanek/2475011-00501/"
4494,2469011-25902,"Wełnowiec Plac Alfreda",50.2927429000,19.0155338500,"https://rj.metropoliaztm.pl/rozklady/przystanek/2469011-25902/"
4820,2401011-07101,"Łagisza Odkrywkowa nż",50.3472059800,19.1308069000,"https://rj.metropoliaztm.pl/rozklady/przystanek/2401011-07101/"
3647,2475011-02102,"Grabocin Kościuszkowców",50.2987770400,19.2534589500,"https://rj.metropoliaztm.pl/rozklady/przystanek/2475011-02102/"
6598,2408011-02502,"Brada Przysiółki",50.1538339300,18.8209003200,"https://rj.metropoliaztm.pl/rozklady/przystanek/2408011-02502/"
3590,2413092-06701,"Zbrosławice Szkoła",50.4145927400,18.7437641400,"https://rj.metropoliaztm.pl/rozklady/przystanek/2413092-06701/"
6076,2463011-10102,"Maciejkowice Kluczborska",50.3266485500,18.9762902000,"https://rj.metropoliaztm.pl/rozklady/przystanek/2463011-10102/"
8105,2477011-15502,"Tychy Trzy Stawy",50.1230170600,18.9964604100,"https://rj.metropoliaztm.pl/rozklady/przystanek/2477011-15502/"
279,2413092-03103,"Boniowice Skrzyżowanie",50.3940900200,18.7128293800,"https://rj.metropoliaztm.pl/rozklady/przystanek/2413092-03103/"
1101,2474011-03101,"Siemianowice Głowackiego nż",50.3001065800,19.0309536200,"https://rj.metropoliaztm.pl/rozklady/przystanek/2474011-03101/"
1811,2401042-01601,"Myszkowice",50.4355388000,19.0607643100,"https://rj.metropoliaztm.pl/rozklady/przystanek/2401042-01601/"
661,2462011-06103,"Górniki Droga do Stolarzowic",50.4036420700,18.8114261600,"https://rj.metropoliaztm.pl/rozklady/przystanek/2462011-06103/"
6458,2408021-00501,"Mikołów Fabryczna",50.1726307700,18.8873588800,"https://rj.metropoliaztm.pl/rozklady/przystanek/2408021-00501/"
852,GR01902,"granica BĘDZ - PSAR (Niepiekło)",50.3559339024,19.1844825506,"https://rj.metropoliaztm.pl/rozklady/przystanek/GR01902/"
879,GR04201,"granica BYTO - CHOR (Oswaldów)",50.3179533035,18.9349390511,"https://rj.metropoliaztm.pl/rozklady/przystanek/GR04201/"
6482,2408011-01702,"Łaziska Średnie Szkoła",50.1371382900,18.8697833700,"https://rj.metropoliaztm.pl/rozklady/przystanek/2408011-01702/"
1372,2472011-06202,"Kochłowice Park Pamięci",50.2486950800,18.8934659000,"https://rj.metropoliaztm.pl/rozklady/przystanek/2472011-06202/"
4595,2462011-07602t,"Łagiewniki Krzyżowa",50.3276047200,18.9279889800,"https://rj.metropoliaztm.pl/rozklady/przystanek/2462011-07602t/"
6448,2408021-01802,"Mikołów Gronie Wspólna",50.1615937600,18.9186978100,"https://rj.metropoliaztm.pl/rozklady/przystanek/2408021-01802/"
7948,2413092-01902,"Łubie Górne",50.4457846300,18.6537622900,"https://rj.metropoliaztm.pl/rozklady/przystanek/2413092-01902/"
5195,2474011-05702,"Siemianowice Chemiczna 14 nż",50.2838390712,19.0328503183,"https://rj.metropoliaztm.pl/rozklady/przystanek/2474011-05702/"
7285,2478011-10901,"Zabrze Matejki",50.2910293200,18.7812614200,"https://rj.metropoliaztm.pl/rozklady/przystanek/2478011-10901/"
4156,2405021-00802,"Pyskowice Traugutta I",50.3889611600,18.6294974000,"https://rj.metropoliaztm.pl/rozklady/przystanek/2405021-00802/"
44,2413072-00201,"Świerklaniec Park",50.4344129763,18.9468116387,"https://rj.metropoliaztm.pl/rozklady/przystanek/2413072-00201/"
8040,2478011-16301,"Zabrze Rondo Sybiraków",50.2895583100,18.7826561700,"https://rj.metropoliaztm.pl/rozklady/przystanek/2478011-16301/"
5682,2471011-03005,"Osiedle Wieczorka Dworzec",50.3918444705,18.9605681619,"https://rj.metropoliaztm.pl/rozklady/przystanek/2471011-03005/"
3761,2466011-15301,"Gliwice Zakład Opla",50.3194358800,18.6221158500,"https://rj.metropoliaztm.pl/rozklady/przystanek/2466011-15301/"
2560,2401011-02001t,"Będzin Rondo",50.3248169900,19.1242623100,"https://rj.metropoliaztm.pl/rozklady/przystanek/2401011-02001t/"
2867,2465011-13703,"Strzemieszyce Stacyjna",50.3147565100,19.2689299300,"https://rj.metropoliaztm.pl/rozklady/przystanek/2465011-13703/"
3109,2465011-08202,"Łosień Szkoła",50.3499924000,19.3305027200,"https://rj.metropoliaztm.pl/rozklady/przystanek/2465011-08202/"
1574,2401021-00602,"Czeladź Legionów",50.3147862200,19.0641451200,"https://rj.metropoliaztm.pl/rozklady/przystanek/2401021-00602/"
2096,2465011-07402,"Łęknice Pogoria III",50.3476247100,19.2107424500,"https://rj.metropoliaztm.pl/rozklady/przystanek/2465011-07402/"
3499,2466011-08102,"Gliwice Zygmunta Starego",50.2892809800,18.6558634000,"https://rj.metropoliaztm.pl/rozklady/przystanek/2466011-08102/"
3020,2466011-09302,"Łabędy Strzelców Bytomskich",50.3460229100,18.6233168600,"https://rj.metropoliaztm.pl/rozklady/przystanek/2466011-09302/"
433,2462011-04902,"Bytom Szpital nr 1",50.3522857600,18.9235257800,"https://rj.metropoliaztm.pl/rozklady/przystanek/2462011-04902/"
4295,2476011-00102,"Chropaczów Konstantego Wolnego",50.3161472700,18.9156722800,"https://rj.metropoliaztm.pl/rozklady/przystanek/2476011-00102/"
6502,2408011-00702,"Łaziska Górne Ogrodowa",50.1535171200,18.8451409100,"https://rj.metropoliaztm.pl/rozklady/przystanek/2408011-00702/"
6506,2408011-00601,"Łaziska Górne Basen",50.1575453000,18.8514065500,"https://rj.metropoliaztm.pl/rozklady/przystanek/2408011-00601/"
248,2469011-07102,"Bogucice Cmentarz",50.2723167400,19.0468274100,"https://rj.metropoliaztm.pl/rozklady/przystanek/2469011-07102/"
3309,2401075-04201,"Wojkowice Kościelne Piastowska",50.4074323400,19.2121279500,"https://rj.metropoliaztm.pl/rozklady/przystanek/2401075-04201/"
7108,GR07201,"granica SIEM - KATO (Bytków)",50.2953675899,19.0048989513,"https://rj.metropoliaztm.pl/rozklady/przystanek/GR07201/"
3679,2466011-07602t,"Gliwice Zajezdnia",50.3050379100,18.7308573500,"https://rj.metropoliaztm.pl/rozklady/przystanek/2466011-07602t/"
4603,2462011-00601,"Bytom Arki Bożka",50.3339357500,18.9391791600,"https://rj.metropoliaztm.pl/rozklady/przystanek/2462011-00601/"
8798,2408052-00101,"Gostyń Centrum",50.1041719300,18.8826335600,"https://rj.metropoliaztm.pl/rozklady/przystanek/2408052-00101/"
3105,2465011-08002,"Łosień Las",50.3551543200,19.3065834000,"https://rj.metropoliaztm.pl/rozklady/przystanek/2465011-08002/"
2085,2462011-11303,"Stroszek Osiedle",50.3983352600,18.8753163800,"https://rj.metropoliaztm.pl/rozklady/przystanek/2462011-11303/"
5188,2408052-00701,"Wyry Przejazd Kolejowy",50.1252801000,18.8840651300,"https://rj.metropoliaztm.pl/rozklady/przystanek/2408052-00701/"
2776,2462011-10904,"Stolarzowice Poczta",50.3900524400,18.8222086400,"https://rj.metropoliaztm.pl/rozklady/przystanek/2462011-10904/"
1790,2469011-16201,"Murcki Dolina Murckowska",50.2000024300,19.0522136900,"https://rj.metropoliaztm.pl/rozklady/przystanek/2469011-16201/"
6882,2469011-01902t,"Katowice Jordana",50.2517572500,19.0150856700,"https://rj.metropoliaztm.pl/rozklady/przystanek/2469011-01902t/"
6274,2477011-04001,"Paprocany Dymarek",50.0967310000,18.9931760000,"https://rj.metropoliaztm.pl/rozklady/przystanek/2477011-04001/"
3029,2462011-07302,"Łagiewniki Boisko",50.3289364800,18.9324152400,"https://rj.metropoliaztm.pl/rozklady/przystanek/2462011-07302/"
7829,2405042-03002,"Stanica Las nż",50.2061453900,18.5281467200,"https://rj.metropoliaztm.pl/rozklady/przystanek/2405042-03002/"
6128,2477011-19502,"Wilkowyje Działki",50.1401282100,18.9566135100,"https://rj.metropoliaztm.pl/rozklady/przystanek/2477011-19502/"
2939,2466011-11101,"Obrońców Pokoju Wiśniowa",50.3210426800,18.6888432200,"https://rj.metropoliaztm.pl/rozklady/przystanek/2466011-11101/"
8794,2469011-39701,"Ochojec Spółdzielczości",50.2088714100,18.9893579200,"https://rj.metropoliaztm.pl/rozklady/przystanek/2469011-39701/"
1121,2472011-03101,"Halemba Elektrownia",50.2368916500,18.8486599700,"https://rj.metropoliaztm.pl/rozklady/przystanek/2472011-03101/"
5557,2401011-12202,"Będzin Johnson Electric",50.3126143700,19.1512310800,"https://rj.metropoliaztm.pl/rozklady/przystanek/2401011-12202/"
672,2478011-12301,"Zabrze Przystankowa",50.3259704500,18.7857353400,"https://rj.metropoliaztm.pl/rozklady/przystanek/2478011-12301/"
3618,2466011-05901,"Gliwice Słowackiego",50.2879100100,18.6544150100,"https://rj.metropoliaztm.pl/rozklady/przystanek/2466011-05901/"
1756,2475011-05601,"Modrzejów Rynek",50.2414481000,19.1494550900,"https://rj.metropoliaztm.pl/rozklady/przystanek/2475011-05601/"
3898,2413062-01002,"Ożarowice Kościuszki",50.4614579626,19.0453593137,"https://rj.metropoliaztm.pl/rozklady/przystanek/2413062-01002/"
4982,GR09001,"granica DĄBR - SOSN (K-D)",50.3161301888,19.1946636703,"https://rj.metropoliaztm.pl/rozklady/przystanek/GR09001/"
3140,2465011-15201,"Tucznawa Smardz",50.3827259600,19.2962837200,"https://rj.metropoliaztm.pl/rozklady/przystanek/2465011-15201/"
9726,2413092-08631,"Wieszowa Cmentarz",50.3825721413,18.7554580076,"https://rj.metropoliaztm.pl/rozklady/przystanek/2413092-08631/"
1379,2465011-05502,"Kolonia Piekło Pogoria III",50.3620402500,19.2105359300,"https://rj.metropoliaztm.pl/rozklady/przystanek/2465011-05502/"
5047,2463011-01903t,"Chorzów Batory Zajezdnia",50.2747538900,18.9551222100,"https://rj.metropoliaztm.pl/rozklady/przystanek/2463011-01903t/"
892,GR09401,"granica DĄBR - SŁAW (Strzemieszycka)",50.3060721934,19.3448249999,"https://rj.metropoliaztm.pl/rozklady/przystanek/GR09401/"
5289,2472011-12201,"Kochłowice Rondo Gębały",50.2584484800,18.9349365200,"https://rj.metropoliaztm.pl/rozklady/przystanek/2472011-12201/"
6144,2477011-03502,"Mąkołowiec Przepiórek",50.1387144200,18.9726638500,"https://rj.metropoliaztm.pl/rozklady/przystanek/2477011-03502/"
6657,GR25801,"granica WYRY - KOBI (Centralna)",50.0903286690,18.8903202626,"https://rj.metropoliaztm.pl/rozklady/przystanek/GR25801/"
814,2465011-04401,"Gołonóg Wczasowa",50.3441318400,19.2256927200,"https://rj.metropoliaztm.pl/rozklady/przystanek/2465011-04401/"
3673,2466011-04802,"Gliwice Opolska",50.3016348300,18.6848521000,"https://rj.metropoliaztm.pl/rozklady/przystanek/2466011-04802/"
5636,2469011-37102,"Wesoła Kopalnia",50.1816626500,19.0949682100,"https://rj.metropoliaztm.pl/rozklady/przystanek/2469011-37102/"
4157,2462011-11601,"Stroszek Stadion nż",50.3925285500,18.8818609700,"https://rj.metropoliaztm.pl/rozklady/przystanek/2462011-11601/"
2403,2475011-10202,"Porąbka Wiejska",50.2878517400,19.2212677000,"https://rj.metropoliaztm.pl/rozklady/przystanek/2475011-10202/"
4475,2469011-29502t,"Zawodzie Centrum Przesiadkowe",50.2603385400,19.0633462900,"https://rj.metropoliaztm.pl/rozklady/przystanek/2469011-29502t/"
8054,2469011-06904,"Józefowiec Ściegiennego",50.2779624200,19.0072535200,"https://rj.metropoliaztm.pl/rozklady/przystanek/2469011-06904/"
1226,2469011-06102,"Janów Strumienna",50.2354583500,19.0913183500,"https://rj.metropoliaztm.pl/rozklady/przystanek/2469011-06102/"
317,2401062-00202,"Brzękowice Remiza",50.4140100000,19.1107100000,"https://rj.metropoliaztm.pl/rozklady/przystanek/2401062-00202/"
9819,2413092-08731,"Wieszowa Cmentarz",50.3825721413,18.7554580076,"https://rj.metropoliaztm.pl/rozklady/przystanek/2413092-08731/"
4294,2476011-00101t,"Chropaczów Konstantego Wolnego",50.3161041700,18.9157821900,"https://rj.metropoliaztm.pl/rozklady/przystanek/2476011-00101t/"
6268,2477011-05702,"Tychy Sikorskiego Kościół",50.1007758000,18.9867830000,"https://rj.metropoliaztm.pl/rozklady/przystanek/2477011-05702/"
585,2475011-00802,"Dańdówka Osiedle",50.2625128000,19.1736578700,"https://rj.metropoliaztm.pl/rozklady/przystanek/2475011-00802/"
2169,2475011-07901,"Ostrowy Górnicze Pomnik",50.2907098900,19.2683613000,"https://rj.metropoliaztm.pl/rozklady/przystanek/2475011-07901/"
128,2463011-00601,"Chorzów Batory Urząd Skarbowy",50.2828267700,18.9374685200,"https://rj.metropoliaztm.pl/rozklady/przystanek/2463011-00601/"
6022,2405065-02801,"Smolnica Przedszkole",50.2511905800,18.5638201000,"https://rj.metropoliaztm.pl/rozklady/przystanek/2405065-02801/"
1970,2408042-00701,"Ornontowice Ogródki Działkowe",50.1688000100,18.7727326100,"https://rj.metropoliaztm.pl/rozklady/przystanek/2408042-00701/"
2662,2465011-11101,"Sikorka Pomłynie",50.3849014500,19.2834198400,"https://rj.metropoliaztm.pl/rozklady/przystanek/2465011-11101/"
7966,2413082-03402,"Wojska Podlesie",50.4889682800,18.6540066900,"https://rj.metropoliaztm.pl/rozklady/przystanek/2413082-03402/"
8594,2413041-08502,"Tarnowskie Góry Opolska",50.4472345865,18.8484901484,"https://rj.metropoliaztm.pl/rozklady/przystanek/2413041-08502/"
5279,2469011-32002,"Kokociniec Płochy",50.2337794700,18.9635535200,"https://rj.metropoliaztm.pl/rozklady/przystanek/2469011-32002/"
4612,2463011-04901t,"Chorzów Polna",50.3132944700,18.9482342900,"https://rj.metropoliaztm.pl/rozklady/przystanek/2463011-04901t/"
29,2466011-06501,"Gliwice Świętojańska",50.3101500600,18.6698672100,"https://rj.metropoliaztm.pl/rozklady/przystanek/2466011-06501/"
722,2405032-01002,"Przyszowice Przejazd Kolejowy nż",50.2363948200,18.7366938300,"https://rj.metropoliaztm.pl/rozklady/przystanek/2405032-01002/"
4734,2478011-04202t,"Mikulczyce Aleja Szczęście Ludwika",50.3296594600,18.7885719500,"https://rj.metropoliaztm.pl/rozklady/przystanek/2478011-04202t/"
5353,2413062-02701,"Zendek II",50.4926790967,19.0646229417,"https://rj.metropoliaztm.pl/rozklady/przystanek/2413062-02701/"
3448,2414031-04201,"Zamoście Posesja 30",50.1395330000,19.0910840000,"https://rj.metropoliaztm.pl/rozklady/przystanek/2414031-04201/"
5734,2413041-07801,"Strzybnica Poczta nż",50.4786403644,18.8051076488,"https://rj.metropoliaztm.pl/rozklady/przystanek/2413041-07801/"
6286,2477011-11302,"Tychy Edukacji",50.1181838300,18.9971256000,"https://rj.metropoliaztm.pl/rozklady/przystanek/2477011-11302/"
3097,2465011-07902,"Łosień Koksownicza Parking",50.3522141800,19.3532162900,"https://rj.metropoliaztm.pl/rozklady/przystanek/2465011-07902/"
2570,2472011-08501,"Ruda Bujoczka",50.3141265000,18.8452005300,"https://rj.metropoliaztm.pl/rozklady/przystanek/2472011-08501/"
4034,2401052-03601,"Sadowie OSP",50.4380321578,19.1221061587,"https://rj.metropoliaztm.pl/rozklady/przystanek/2401052-03601/"
4959,2465011-10101,"Podwarpie Pętla",50.4259228300,19.2282843500,"https://rj.metropoliaztm.pl/rozklady/przystanek/2465011-10101/"
745,2469011-05401,"Giszowiec Radosna",50.2233283000,19.0669747000,"https://rj.metropoliaztm.pl/rozklady/przystanek/2469011-05401/"
1125,2472011-03301,"Halemba Halembska nż",50.2503745000,18.8372719200,"https://rj.metropoliaztm.pl/rozklady/przystanek/2472011-03301/"
2964,2469011-02301t,"Burowiec",50.2682805700,19.0792870300,"https://rj.metropoliaztm.pl/rozklady/przystanek/2469011-02301t/"
7116,2469011-37501,"Nikiszowiec Lodowisko",50.2448456800,19.0819618900,"https://rj.metropoliaztm.pl/rozklady/przystanek/2469011-37501/"
1535,2401075-03301,"Kuźnica Warężyńska Skrzyżowanie",50.4020213700,19.1921281800,"https://rj.metropoliaztm.pl/rozklady/przystanek/2401075-03301/"
951,GR02902,"granica BOBR - PSAR (Twardowice)",50.4080393719,19.0854080480,"https://rj.metropoliaztm.pl/rozklady/przystanek/GR02902/"
5746,2413052-00701,"Potępa",50.5661383300,18.6620747800,"https://rj.metropoliaztm.pl/rozklady/przystanek/2413052-00701/"
5643,2401062-05902,"Gródków Centrum Dystrybucyjne",50.3600436100,19.1151392800,"https://rj.metropoliaztm.pl/rozklady/przystanek/2401062-05902/"
1753,2475011-05002,"Milowice Most",50.2915297000,19.0731823200,"https://rj.metropoliaztm.pl/rozklady/przystanek/2475011-05002/"
3166,2465011-16102,"Ujejsce Górka",50.3877814200,19.2419528900,"https://rj.metropoliaztm.pl/rozklady/przystanek/2465011-16102/"
6682,2414011-02501,"Bieruń Rudnik",50.1031844000,19.0975582300,"https://rj.metropoliaztm.pl/rozklady/przystanek/2414011-02501/"
1393,2469011-11902,"Kolonia Zuzanna nż",50.2352741100,19.0545696700,"https://rj.metropoliaztm.pl/rozklady/przystanek/2469011-11902/"
5408,2469011-00103,"Katowice Dworzec",50.2584687700,19.0175318500,"https://rj.metropoliaztm.pl/rozklady/przystanek/2469011-00103/"
1593,2469011-14703,"Ligota Poleska",50.2232177300,18.9692081400,"https://rj.metropoliaztm.pl/rozklady/przystanek/2469011-14703/"
2913,2471011-04501,"Szarlej Osiedle Sowińskiego",50.3712529634,18.9556244114,"https://rj.metropoliaztm.pl/rozklady/przystanek/2471011-04501/"
2961,2469011-24501,"Szopienice Bednorza",50.2638923200,19.0876277500,"https://rj.metropoliaztm.pl/rozklady/przystanek/2469011-24501/"
6000,GR73801,"granica MIER - OŻAR (Ogr. Działkowe I)",50.4634150307,19.0899528144,"https://rj.metropoliaztm.pl/rozklady/przystanek/GR73801/"
2472,2401062-04002,"Psary Skrzyżowanie",50.3807029000,19.0909242900,"https://rj.metropoliaztm.pl/rozklady/przystanek/2401062-04002/"
3559,2462011-01215,"Bytom Dworzec",50.3442044200,18.9124965400,"https://rj.metropoliaztm.pl/rozklady/przystanek/2462011-01215/"
7075,2478011-15801,"Mikulczyce KSSE Goduli",50.3516901800,18.8001978100,"https://rj.metropoliaztm.pl/rozklady/przystanek/2478011-15801/"
4588,2462011-08001,"Łagiewniki Szyby Rycerskie nż",50.3309158200,18.9274746100,"https://rj.metropoliaztm.pl/rozklady/przystanek/2462011-08001/"
4063,2401011-05501,"Grodziec Słowackiego",50.3508618400,19.0809714500,"https://rj.metropoliaztm.pl/rozklady/przystanek/2401011-05501/"
1092,2478011-09902,"Zabrze Grunwaldzka",50.3114761100,18.7594411400,"https://rj.metropoliaztm.pl/rozklady/przystanek/2478011-09902/"
5628,2462011-13701,"Łagiewniki Adamka",50.3246076800,18.9333164600,"https://rj.metropoliaztm.pl/rozklady/przystanek/2462011-13701/"
9755,2405011-04001,"Knurów Cztery Pory Roku",50.2365526600,18.6467432700,"https://rj.metropoliaztm.pl/rozklady/przystanek/2405011-04001/"
5511,2466011-07604,"Gliwice Zajezdnia",50.3047775200,18.7304925700,"https://rj.metropoliaztm.pl/rozklady/przystanek/2466011-07604/"
4023,2401052-04001,"Przeczyce Posesja 105",50.4378889709,19.1514975212,"https://rj.metropoliaztm.pl/rozklady/przystanek/2401052-04001/"
3251,2469011-06802,"Józefowiec Szpital",50.2847252200,19.0132045600,"https://rj.metropoliaztm.pl/rozklady/przystanek/2469011-06802/"
4610,2463011-03901t,"Chorzów Nowa",50.3089591600,18.9511348700,"https://rj.metropoliaztm.pl/rozklady/przystanek/2463011-03901t/"
5965,2405082-02502,"Sieroty",50.4740306900,18.6087417300,"https://rj.metropoliaztm.pl/rozklady/przystanek/2405082-02502/"
9498,2401062-06601,"Goląsza Dolna Poddzwonek nż",50.4001199486,19.1240603380,"https://rj.metropoliaztm.pl/rozklady/przystanek/2401062-06601/"
1917,2414021-00702,"Imielin Hallera",50.1390169800,19.1944396200,"https://rj.metropoliaztm.pl/rozklady/przystanek/2414021-00702/"
903,GR10301,"granica GIER - GLIW (Bojków)",50.2352642236,18.7204977257,"https://rj.metropoliaztm.pl/rozklady/przystanek/GR10301/"
5802,2405082-02201,"Wielowieś Kościelna",50.5117133400,18.6246234500,"https://rj.metropoliaztm.pl/rozklady/przystanek/2405082-02201/"
3449,2414031-04302,"Zamoście Skrzyżowanie",50.1386287600,19.0843838400,"https://rj.metropoliaztm.pl/rozklady/przystanek/2414031-04302/"
2112,2469011-21402,"Osiedle Witosa II",50.2661847600,18.9733719600,"https://rj.metropoliaztm.pl/rozklady/przystanek/2469011-21402/"
2882,2413041-03702,"Strzybnica Ogrodnictwo nż",50.4642862040,18.8180184380,"https://rj.metropoliaztm.pl/rozklady/przystanek/2413041-03702/"
4089,2413031-01402,"Rojca Szarlejka nż",50.3731813800,18.9134359300,"https://rj.metropoliaztm.pl/rozklady/przystanek/2413031-01402/"
2853,2465011-12901,"Strzemieszyce Małe Spółdzielnia",50.3272378800,19.3196833100,"https://rj.metropoliaztm.pl/rozklady/przystanek/2465011-12901/"
2056,2475011-07301,"Osiedle Naftowa Pętla",50.2659998900,19.1286295600,"https://rj.metropoliaztm.pl/rozklady/przystanek/2475011-07301/"
2705,2472011-09302,"Ruda Sobieskiego",50.3281416900,18.8552367400,"https://rj.metropoliaztm.pl/rozklady/przystanek/2472011-09302/"
5323,2463011-05803,"Chorzów Stary Bożogrobców",50.3026490600,18.9746594200,"https://rj.metropoliaztm.pl/rozklady/przystanek/2463011-05803/"
8653,2462011-15301,"Bytom Wesoła",50.3557142673,18.9320983965,"https://rj.metropoliaztm.pl/rozklady/przystanek/2462011-15301/"
998,GR08101,"granica CZEL - SOSN (Milowice)",50.2958388334,19.0744809405,"https://rj.metropoliaztm.pl/rozklady/przystanek/GR08101/"
7181,2405021-03702,"Pyskowice Jaśkowicka Ogródki Działkowe nż",50.4105932224,18.6480736771,"https://rj.metropoliaztm.pl/rozklady/przystanek/2405021-03702/"
1896,2401011-08001,"Nowy Będzin Dworzec PKP",50.3090423400,19.1403877500,"https://rj.metropoliaztm.pl/rozklady/przystanek/2401011-08001/"
6773,GR25101,"granica BOJS - MIED (Międzyrzecka)",50.0237040637,19.0875237878,"https://rj.metropoliaztm.pl/rozklady/przystanek/GR25101/"
1886,2475011-06001,"Niwka Kolonia Staszic",50.2541129700,19.1506981600,"https://rj.metropoliaztm.pl/rozklady/przystanek/2475011-06001/"
7884,2413082-00601,"Nowa Wieś Pętla",50.5274043000,18.7525887600,"https://rj.metropoliaztm.pl/rozklady/przystanek/2413082-00601/"
6892,2462011-12003t,"Stroszek Zajezdnia",50.3981859000,18.8722441300,"https://rj.metropoliaztm.pl/rozklady/przystanek/2462011-12003t/"
6415,2477011-16302,"Urbanowice Główna",50.1094118000,19.0357172200,"https://rj.metropoliaztm.pl/rozklady/przystanek/2477011-16302/"
7339,GR04001,"granica BOBR - PIEK (Namiarki)",50.3743061457,18.9630070226,"https://rj.metropoliaztm.pl/rozklady/przystanek/GR04001/"
2836,2465011-12201,"Strzemieszyce Fabryka",50.3086657800,19.3002963000,"https://rj.metropoliaztm.pl/rozklady/przystanek/2465011-12201/"
8843,2465011-23902,"Dąbrowa Górnicza Zawidzkiej",50.3308889500,19.2037335300,"https://rj.metropoliaztm.pl/rozklady/przystanek/2465011-23902/"
1478,2471011-02502,"Kozłowa Góra Tarnogórska",50.4068438862,18.9474873830,"https://rj.metropoliaztm.pl/rozklady/przystanek/2471011-02502/"
527,2469011-03502,"Dąbrówka Mała Le Ronda",50.2746138900,19.0578205400,"https://rj.metropoliaztm.pl/rozklady/przystanek/2469011-03502/"
4791,2413041-06103,"Bobrowniki Śląskie",50.4238348606,18.8684871206,"https://rj.metropoliaztm.pl/rozklady/przystanek/2413041-06103/"
5012,2401075-04302,"Wojkowice Kościelne Remiza",50.4131415200,19.2159474200,"https://rj.metropoliaztm.pl/rozklady/przystanek/2401075-04302/"
9740,2469011-01602,"Katowice Kopernika Dworzec",50.2552626700,19.0129613600,"https://rj.metropoliaztm.pl/rozklady/przystanek/2469011-01602/"
2292,2466011-05301,"Gliwice Plac Piłsudskiego",50.2967963600,18.6679756400,"https://rj.metropoliaztm.pl/rozklady/przystanek/2466011-05301/"
3457,2469011-27902,"Zarzecze Węgorzy",50.1824357900,18.9446783000,"https://rj.metropoliaztm.pl/rozklady/przystanek/2469011-27902/"
5436,2401075-07801,"Marcinków I",50.4253286200,19.1898323300,"https://rj.metropoliaztm.pl/rozklady/przystanek/2401075-07801/"
6386,2477011-13301,"Tychy Osiedle Wygoda",50.1023310800,19.0646528900,"https://rj.metropoliaztm.pl/rozklady/przystanek/2477011-13301/"
2614,2462011-04301,"Bytom Sandomierska",50.3563659200,18.9302158300,"https://rj.metropoliaztm.pl/rozklady/przystanek/2462011-04301/"
3704,2405011-00501,"Knurów Poczta",50.2213256500,18.6730241700,"https://rj.metropoliaztm.pl/rozklady/przystanek/2405011-00501/"
3182,2472011-09801t,"Ruda Urząd Skarbowy",50.3009056700,18.8696241100,"https://rj.metropoliaztm.pl/rozklady/przystanek/2472011-09801t/"
3069,2401011-07501,"Łagisza Poczta",50.3515124900,19.1380977600,"https://rj.metropoliaztm.pl/rozklady/przystanek/2401011-07501/"
3844,2413062-04002,"Pyrzowice Szkoła",50.4616475907,19.0711780824,"https://rj.metropoliaztm.pl/rozklady/przystanek/2413062-04002/"
1816,2472011-07201,"Nowy Bytom Chorzowska",50.2796456100,18.8968169600,"https://rj.metropoliaztm.pl/rozklady/przystanek/2472011-07201/"
3932,2405011-02202,"Szczygłowice Kościół",50.1953362000,18.6497479600,"https://rj.metropoliaztm.pl/rozklady/przystanek/2405011-02202/"
902,GR26202,"granica MIKO - ORNO (Dworcowa)",50.1770961799,18.7825973576,"https://rj.metropoliaztm.pl/rozklady/przystanek/GR26202/"
9132,2472011-02302t,"Chebzie Pętla ",50.3005863100,18.8817798800,"https://rj.metropoliaztm.pl/rozklady/przystanek/2472011-02302t/"
7937,2413092-02001,"Łubie nż",50.4382537300,18.6519055500,"https://rj.metropoliaztm.pl/rozklady/przystanek/2413092-02001/"
1541,2465011-06501,"Kuźniczka Las nż",50.3262173300,19.4048702700,"https://rj.metropoliaztm.pl/rozklady/przystanek/2465011-06501/"
5587,2466011-20401,"Łabędy Ogródki Działkowe nż",50.3498897100,18.6250173800,"https://rj.metropoliaztm.pl/rozklady/przystanek/2466011-20401/"
1638,2472011-08902,"Ruda Magazynowa",50.3071720200,18.8633859100,"https://rj.metropoliaztm.pl/rozklady/przystanek/2472011-08902/"
4163,2470011-04501,"Krasowy Dąbrówki",50.1844209300,19.1333603600,"https://rj.metropoliaztm.pl/rozklady/przystanek/2470011-04501/"
2606,2413041-03202,"Rybna Pałac",50.4666858726,18.7916868904,"https://rj.metropoliaztm.pl/rozklady/przystanek/2413041-03202/"
6476,2408011-01801,"Łaziska Średnie Kopalniana",50.1470465500,18.8709957300,"https://rj.metropoliaztm.pl/rozklady/przystanek/2408011-01801/"
1385,2475011-04001,"Kolonia Wągródka nż",50.2714654700,19.2890187400,"https://rj.metropoliaztm.pl/rozklady/przystanek/2475011-04001/"
936,GR12901,"granica KATO - SOSN (Roździeńskiego)",50.2819087005,19.0911694351,"https://rj.metropoliaztm.pl/rozklady/przystanek/GR12901/"
60,2466011-18302,"Żerniki Rogozińskiego",50.3250392000,18.7031990200,"https://rj.metropoliaztm.pl/rozklady/przystanek/2466011-18302/"
730,2405032-01202,"Gierałtowice Wyzwolenia",50.2197021500,18.7126940400,"https://rj.metropoliaztm.pl/rozklady/przystanek/2405032-01202/"
923,GR13302,"granica KATO - MYSŁ (Janów)",50.2441393992,19.0995691749,"https://rj.metropoliaztm.pl/rozklady/przystanek/GR13302/"
1488,2469011-08801,"Katowice Krasińskiego",50.2537190700,19.0345488100,"https://rj.metropoliaztm.pl/rozklady/przystanek/2469011-08801/"
4660,2462011-13101,"Szombierki Osiedle",50.3325763700,18.8902403100,"https://rj.metropoliaztm.pl/rozklady/przystanek/2462011-13101/"
4732,2478011-12102t,"Zabrze Pole Ludwik",50.3252553700,18.7887757900,"https://rj.metropoliaztm.pl/rozklady/przystanek/2478011-12102t/"
1895,2474011-04002,"Siemianowice Nowy Świat",50.3091862300,19.0175211200,"https://rj.metropoliaztm.pl/rozklady/przystanek/2474011-04002/"
913,GR07102,"granica CHOR - KATO (Kochłowicka)",50.2557251450,18.9569674706,"https://rj.metropoliaztm.pl/rozklady/przystanek/GR07102/"
2989,2462011-07902,"Łagiewniki Różana nż",50.3192303700,18.9325547200,"https://rj.metropoliaztm.pl/rozklady/przystanek/2462011-07902/"
569,2475011-01401,"Dębowa Góra Kolonia Ludmiła",50.2585716600,19.1491317500,"https://rj.metropoliaztm.pl/rozklady/przystanek/2475011-01401/"
4901,2470011-03201,"Dziećkowice Ośrodek Zdrowia",50.1750772800,19.2201411700,"https://rj.metropoliaztm.pl/rozklady/przystanek/2470011-03201/"
393,2474011-00802,"Bytków Osiedle Młodych",50.3065755800,19.0102040500,"https://rj.metropoliaztm.pl/rozklady/przystanek/2474011-00802/"
4918,2408021-05602,"Nowa Wygoda",50.2162384500,18.8366329400,"https://rj.metropoliaztm.pl/rozklady/przystanek/2408021-05602/"
359,2466011-02001,"Gliwice błog. Czesława",50.2926842600,18.6942458100,"https://rj.metropoliaztm.pl/rozklady/przystanek/2466011-02001/"
3060,2401011-07402,"Łagisza Osiedle Rzemieślnicze",50.3429473100,19.1563200700,"https://rj.metropoliaztm.pl/rozklady/przystanek/2401011-07402/"
2217,2478011-05801,"Pawłów Dom Kultury",50.2807220200,18.8083148000,"https://rj.metropoliaztm.pl/rozklady/przystanek/2478011-05801/"
8592,2478011-09602t,"Biskupice Bytomska [tech]",50.3264737300,18.8313285400,"https://rj.metropoliaztm.pl/rozklady/przystanek/2478011-09602t/"
1026,2465011-04902,"Grabocin Sosnowiecka",50.3027107400,19.2639088400,"https://rj.metropoliaztm.pl/rozklady/przystanek/2465011-04902/"
4844,2470011-01901,"Słupna Ośrodek Wypoczynkowy",50.2288895100,19.1420936300,"https://rj.metropoliaztm.pl/rozklady/przystanek/2470011-01901/"
2724,2413041-04801,"Stare Tarnowice Osiedle Przyjaźń",50.4434872556,18.8244134231,"https://rj.metropoliaztm.pl/rozklady/przystanek/2413041-04801/"
6897,2469011-29301t,"Wełnowiec Konduktorska [tech]",50.2809658100,19.0204715500,"https://rj.metropoliaztm.pl/rozklady/przystanek/2469011-29301t/"
865,GR05901,"granica BYTO - PIEK (Szarlej)",50.3610497692,18.9349292170,"https://rj.metropoliaztm.pl/rozklady/przystanek/GR05901/"
8693,2479011-00301,"Żory Dworzec Kolejowy",50.0505709500,18.7040260000,"https://rj.metropoliaztm.pl/rozklady/przystanek/2479011-00301/"
3816,2462011-12601,"Szombierki Godulska",50.3352029600,18.8877511000,"https://rj.metropoliaztm.pl/rozklady/przystanek/2462011-12601/"
8654,2478011-17702,"Grzybowice Szczecińska",50.3614889891,18.7644716772,"https://rj.metropoliaztm.pl/rozklady/przystanek/2478011-17702/"
5089,2477011-00802,"Czułów Osiedle",50.1556618600,19.0082084900,"https://rj.metropoliaztm.pl/rozklady/przystanek/2477011-00802/"
1192,2469011-02702,"Dąb Huta Baildon",50.2674466400,19.0092384600,"https://rj.metropoliaztm.pl/rozklady/przystanek/2469011-02702/"
4722,2478011-12601t,"Guido Kopalnia Zabytkowa",50.2898333200,18.7925986500,"https://rj.metropoliaztm.pl/rozklady/przystanek/2478011-12601t/"
3650,2465011-10701,"Reden Wojska Polskiego",50.3233470200,19.2012846200,"https://rj.metropoliaztm.pl/rozklady/przystanek/2465011-10701/"
4725,2478011-11501t,"Guido Park Pileckiego",50.2872728900,18.7932884400,"https://rj.metropoliaztm.pl/rozklady/przystanek/2478011-11501t/"
2382,2401042-02601,"Pomłynie Spółdzielnia nż",50.4090782000,19.0577709600,"https://rj.metropoliaztm.pl/rozklady/przystanek/2401042-02601/"
584,2475011-00801t,"Dańdówka Osiedle",50.2622754800,19.1731858000,"https://rj.metropoliaztm.pl/rozklady/przystanek/2475011-00801t/"
5631,2462011-01501,"Łagiewniki Gojny nż",50.3369355200,18.9217561400,"https://rj.metropoliaztm.pl/rozklady/przystanek/2462011-01501/"
553,2471011-01102,"Dąbrówka Wielka",50.3456135385,19.0084645207,"https://rj.metropoliaztm.pl/rozklady/przystanek/2471011-01102/"
5391,2401052-00601,"Boguchwałowice Sklep",50.4547838232,19.1842071954,"https://rj.metropoliaztm.pl/rozklady/przystanek/2401052-00601/"
8713,2477011-05301,"Tychy Powstańców",50.1357044904,18.9835954466,"https://rj.metropoliaztm.pl/rozklady/przystanek/2477011-05301/"
3439,2401074-06102,"Siewierz Zamek",50.4652321100,19.2398875900,"https://rj.metropoliaztm.pl/rozklady/przystanek/2401074-06102/"
3709,2413092-03001,"Boniowice Szkoła",50.3978243400,18.7119496200,"https://rj.metropoliaztm.pl/rozklady/przystanek/2413092-03001/"
2444,2405032-02303,"Przyszowice Kościół",50.2453455700,18.7426865100,"https://rj.metropoliaztm.pl/rozklady/przystanek/2405032-02303/"
6158,2477011-03201,"Mąkołowiec Zielone Wzgórze",50.1407566800,18.9800989400,"https://rj.metropoliaztm.pl/rozklady/przystanek/2477011-03201/"
1250,2466011-10601,"Osiedle Kopernika Oriona",50.3250614700,18.6614021600,"https://rj.metropoliaztm.pl/rozklady/przystanek/2466011-10601/"
516,2466011-02502,"Gliwice Dąbrowskiego",50.2977150400,18.6924540900,"https://rj.metropoliaztm.pl/rozklady/przystanek/2466011-02502/"
10,2408021-05201,"Śmiłowice Biblioteka",50.2002533600,18.8623392300,"https://rj.metropoliaztm.pl/rozklady/przystanek/2408021-05201/"
2410,2413041-07002,"Tarnowskie Góry Powstańców Śląskich",50.4475905700,18.8564943300,"https://rj.metropoliaztm.pl/rozklady/przystanek/2413041-07002/"
177,2472011-01002,"Bielszowice Szpital",50.2759088600,18.8550388800,"https://rj.metropoliaztm.pl/rozklady/przystanek/2472011-01002/"
5528,2478011-09702,"Zabrze Gdańska",50.3158156900,18.7849456000,"https://rj.metropoliaztm.pl/rozklady/przystanek/2478011-09702/"
2309,2478011-11801,"Zabrze Plac Teatralny",50.3103441900,18.7856495100,"https://rj.metropoliaztm.pl/rozklady/przystanek/2478011-11801/"
8452,2469011-29001t,"Chorzów Stadion Śl Pętla Zach.[tech.]",50.2862640445,18.9697869431,"https://rj.metropoliaztm.pl/rozklady/przystanek/2469011-29001t/"
3805,2413021-01201,"Bibiela Kościół",50.5042498905,19.0094507421,"https://rj.metropoliaztm.pl/rozklady/przystanek/2413021-01201/"
5484,2469011-32702,"Piotrowice Wojska Polskiego",50.2052097200,18.9715739400,"https://rj.metropoliaztm.pl/rozklady/przystanek/2469011-32702/"
6637,2408031-01701,"Gardawice Wojska Polskiego",50.1157828600,18.7706827900,"https://rj.metropoliaztm.pl/rozklady/przystanek/2408031-01701/"
778,2478011-09808,"Zabrze Goethego",50.3053766962,18.7821969686,"https://rj.metropoliaztm.pl/rozklady/przystanek/2478011-09808/"
810,2465011-03801,"Gołonóg Osiedle",50.3375378400,19.2241692300,"https://rj.metropoliaztm.pl/rozklady/przystanek/2465011-03801/"
3344,2465011-16902,"Ząbkowice Aleja Zwycięstwa",50.3806666800,19.2530679700,"https://rj.metropoliaztm.pl/rozklady/przystanek/2465011-16902/"
6683,2414011-02703,"Bieruń Strefa",50.1013607500,19.0986525800,"https://rj.metropoliaztm.pl/rozklady/przystanek/2414011-02703/"
2425,2414052-00801,"Chełm Śląski Przejazd Kolejowy",50.1074595500,19.1837740700,"https://rj.metropoliaztm.pl/rozklady/przystanek/2414052-00801/"
6030,2405064-00201,"Sośnicowice Chorynskowice nż",50.2691785300,18.5557043600,"https://rj.metropoliaztm.pl/rozklady/przystanek/2405064-00201/"
2349,2401075-05302,"Podwarpie Bar",50.4277702700,19.2121279500,"https://rj.metropoliaztm.pl/rozklady/przystanek/2401075-05302/"
651,2401021-02402,"Piaski Centrum Handlowe",50.3217030300,19.0998971200,"https://rj.metropoliaztm.pl/rozklady/przystanek/2401021-02402/"
717,2469011-10001,"Brynów Gawronów I",50.2368558700,19.0088185500,"https://rj.metropoliaztm.pl/rozklady/przystanek/2469011-10001/"
5677,2475011-20702,"Bobrek Logistyczna",50.2565384300,19.1890740000,"https://rj.metropoliaztm.pl/rozklady/przystanek/2475011-20702/"
2629,2475011-11101,"Sielec Kombajnistów",50.2794122100,19.1505694100,"https://rj.metropoliaztm.pl/rozklady/przystanek/2475011-11101/"
2004,2475011-06902,"Osiedle Bór Długa III",50.2480281900,19.1905456700,"https://rj.metropoliaztm.pl/rozklady/przystanek/2475011-06902/"
2271,2469011-23301,"Piotrowice Skrzyżowanie",50.2073788100,18.9743612100,"https://rj.metropoliaztm.pl/rozklady/przystanek/2469011-23301/"
3321,2466011-12002,"Wójtowa Wieś Wójtowska",50.2864675900,18.6247610200,"https://rj.metropoliaztm.pl/rozklady/przystanek/2466011-12002/"
198,2478011-00802t,"Biskupice Młyńska",50.3181137300,18.8162004900,"https://rj.metropoliaztm.pl/rozklady/przystanek/2478011-00802t/"
2554,2475011-13401t,"Sosnowiec Rondo Ludwik",50.2733303700,19.1454732200,"https://rj.metropoliaztm.pl/rozklady/przystanek/2475011-13401t/"
2923,2468011-00302,"Szczakowa Góra Piasku",50.2392044900,19.2768537900,"https://rj.metropoliaztm.pl/rozklady/przystanek/2468011-00302/"
8303,2470011-07932,"Mysłowice Szpital",50.2484162200,19.1327166300,"https://rj.metropoliaztm.pl/rozklady/przystanek/2470011-07932/"
5935,2405021-03402,"Pyskowice Schenker",50.4147500900,18.6157271800,"https://rj.metropoliaztm.pl/rozklady/przystanek/2405021-03402/"
5440,2469011-31902,"Dąbrówka Mała Żyzna nż",50.2789492500,19.0744654900,"https://rj.metropoliaztm.pl/rozklady/przystanek/2469011-31902/"
1997,2475011-06601,"Osiedle Bór Bloki",50.2432185800,19.1751712500,"https://rj.metropoliaztm.pl/rozklady/przystanek/2475011-06601/"
3897,2413062-03102,"Zendek VI",50.4924878053,19.1029731838,"https://rj.metropoliaztm.pl/rozklady/przystanek/2413062-03102/"
2434,2466011-12301,"Przyszówka Osiedle Literatów",50.3342750300,18.6419534600,"https://rj.metropoliaztm.pl/rozklady/przystanek/2466011-12301/"
890,GR09301,"granica DĄBR - SŁAW (Groniec)",50.2990207269,19.3018456990,"https://rj.metropoliaztm.pl/rozklady/przystanek/GR09301/"
6603,2408031-01301,"Orzesze Kawika",50.1222837700,18.7631511400,"https://rj.metropoliaztm.pl/rozklady/przystanek/2408031-01301/"
5765,2413082-00202,"Tworóg Zamek",50.5321668532,18.7201591512,"https://rj.metropoliaztm.pl/rozklady/przystanek/2413082-00202/"
6180,2477011-07502,"Tychy Kościuszki",50.1283780100,18.9871477800,"https://rj.metropoliaztm.pl/rozklady/przystanek/2477011-07502/"
7408,2475011-12002,"Sosnowiec Aleja Zwycięstwa",50.2795616300,19.1301785400,"https://rj.metropoliaztm.pl/rozklady/przystanek/2475011-12002/"
2288,2466011-05203,"Gliwice Plac Piastów",50.2983384200,18.6765587100,"https://rj.metropoliaztm.pl/rozklady/przystanek/2466011-05203/"
3754,2412014-01101,"Leszczyny Broniewskiego",50.1399662100,18.6217939800,"https://rj.metropoliaztm.pl/rozklady/przystanek/2412014-01101/"
751,2465011-14701,"Trzebiesławice Zachodnia",50.4313359000,19.2448711300,"https://rj.metropoliaztm.pl/rozklady/przystanek/2465011-14701/"
1817,2472011-07202,"Nowy Bytom Chorzowska",50.2797123300,18.8981025600,"https://rj.metropoliaztm.pl/rozklady/przystanek/2472011-07202/"
6350,2477011-08502,"Tychy LEAR",50.1018397400,19.0435278200,"https://rj.metropoliaztm.pl/rozklady/przystanek/2477011-08502/"
5934,2405021-03401,"Pyskowice Schenker",50.4131672900,18.6156768600,"https://rj.metropoliaztm.pl/rozklady/przystanek/2405021-03401/"
8056,2470011-12602,"Wesoła Kryształowa",50.1922931500,19.1017317500,"https://rj.metropoliaztm.pl/rozklady/przystanek/2470011-12602/"
7365,2474011-06002,"Siemianowice Budowlana Końcowy",50.2762257735,19.0485371380,"https://rj.metropoliaztm.pl/rozklady/przystanek/2474011-06002/"
1208,2478011-06401,"Zaborze Janika",50.2992567800,18.8300561600,"https://rj.metropoliaztm.pl/rozklady/przystanek/2478011-06401/"
1161,2478011-02101,"Helenka Kościół",50.3786822900,18.8091349300,"https://rj.metropoliaztm.pl/rozklady/przystanek/2478011-02101/"
869,GR16801,"granica RADZ - TARN (Bobrowniki)",50.4190955136,18.8830837582,"https://rj.metropoliaztm.pl/rozklady/przystanek/GR16801/"
3119,2466011-17001,"Trynek Ogródki Działkowe nż",50.2701214500,18.6610722500,"https://rj.metropoliaztm.pl/rozklady/przystanek/2466011-17001/"
3714,2413092-07901,"Wilkowice Osiedle nż",50.4412279600,18.7283613000,"https://rj.metropoliaztm.pl/rozklady/przystanek/2413092-07901/"
2636,2475011-11302,"Sielec Osiedle Zamkowa",50.2863022000,19.1488098800,"https://rj.metropoliaztm.pl/rozklady/przystanek/2475011-11302/"
2555,2475011-13402,"Sosnowiec Rondo Ludwik",50.2735429400,19.1454088400,"https://rj.metropoliaztm.pl/rozklady/przystanek/2475011-13402/"
1517,2401031-01102,"Wojkowice Krzyżówka",50.3707655600,19.0364467800,"https://rj.metropoliaztm.pl/rozklady/przystanek/2401031-01102/"
859,GR03501,"granica BOBR - OŻAR (Podtąpkowice)",50.4459389813,19.0220327909,"https://rj.metropoliaztm.pl/rozklady/przystanek/GR03501/"
973,GR17902,"granica CZEL - SIEM (Bańgów)",50.3207362898,19.0505264391,"https://rj.metropoliaztm.pl/rozklady/przystanek/GR17902/"
6084,2470011-10601,"Kosztowy Szkoła",50.1836102800,19.1620814500,"https://rj.metropoliaztm.pl/rozklady/przystanek/2470011-10601/"
2194,2469011-22201,"Panewniki Owsiana",50.2220535400,18.9255685400,"https://rj.metropoliaztm.pl/rozklady/przystanek/2469011-22201/"
8182,2466011-23501,"Ligota Zabrska Okrężna SSE",50.2663287800,18.7076723300,"https://rj.metropoliaztm.pl/rozklady/przystanek/2466011-23501/"
2516,2413041-05701,"Tarnowskie Góry Torowa",50.4275327258,18.8376023773,"https://rj.metropoliaztm.pl/rozklady/przystanek/2413041-05701/"
1793,2469011-16402,"Murcki Kołodzieja",50.1935280400,19.0381579300,"https://rj.metropoliaztm.pl/rozklady/przystanek/2469011-16402/"
6135,2477011-03701,"Mąkołowiec Objazdowa",50.1423931800,18.9699387300,"https://rj.metropoliaztm.pl/rozklady/przystanek/2477011-03701/"
3954,2412015-02202,"Stanowice Szkoła",50.1284092500,18.6684161400,"https://rj.metropoliaztm.pl/rozklady/przystanek/2412015-02202/"
1876,2475011-05802,"Niwka Cmentarz Komunalny",50.2556838500,19.1686260400,"https://rj.metropoliaztm.pl/rozklady/przystanek/2475011-05802/"
41,2413072-00802,"Świerklaniec Centrum",50.4403964687,18.9376434330,"https://rj.metropoliaztm.pl/rozklady/przystanek/2413072-00802/"
2800,2401062-04702,"Strzyżowice Belna 125",50.3898198700,19.0996885200,"https://rj.metropoliaztm.pl/rozklady/przystanek/2401062-04702/"
855,GR03801,"granica BOBR - PIEK (Józefka)",50.3990138286,18.9753895794,"https://rj.metropoliaztm.pl/rozklady/przystanek/GR03801/"
5098,2413092-07501,"Zbrosławice Rozwidlenie",50.4274467300,18.7675177800,"https://rj.metropoliaztm.pl/rozklady/przystanek/2413092-07501/"
4581,2462011-05001t,"Bytom Urząd Miasta",50.3508454200,18.9120459300,"https://rj.metropoliaztm.pl/rozklady/przystanek/2462011-05001t/"
8708,2477011-02601,"Mąkołowiec Bociania",50.1474444328,18.9815738334,"https://rj.metropoliaztm.pl/rozklady/przystanek/2477011-02601/"
5535,2413062-03501,"Pyrzowice Transportowa",50.4628354321,19.0829158021,"https://rj.metropoliaztm.pl/rozklady/przystanek/2413062-03501/"
5394,2474011-06601,"Siemianowice Chemiczna 1A nż",50.2816750000,19.0391778900,"https://rj.metropoliaztm.pl/rozklady/przystanek/2474011-06601/"
3716,2413092-07601,"Zbrosławice Jagiellońska",50.4222196000,18.7612735100,"https://rj.metropoliaztm.pl/rozklady/przystanek/2413092-07601/"
7980,GR73901,"granica MIER - OŻAR (Ogr. Działkowe II)",50.4636940941,19.0938878656,"https://rj.metropoliaztm.pl/rozklady/przystanek/GR73901/"
854,GR01402,"granica BĘDZ - WOJK (Boleradz)",50.3491390858,19.0608719290,"https://rj.metropoliaztm.pl/rozklady/przystanek/GR01402/"
590,2475011-01102t,"Dańdówka Skrzyżowanie",50.2689622200,19.1759323800,"https://rj.metropoliaztm.pl/rozklady/przystanek/2475011-01102t/"
4242,2401075-03801,"Nowa Wioska",50.5052159300,19.2307450400,"https://rj.metropoliaztm.pl/rozklady/przystanek/2401075-03801/"
5615,2471011-00703,"Brzeziny Śląskie Skrzyżowanie",50.3449365533,18.9799188922,"https://rj.metropoliaztm.pl/rozklady/przystanek/2471011-00703/"
4119,2401052-00402,"Boguchwałowice",50.4541164469,19.1730862152,"https://rj.metropoliaztm.pl/rozklady/przystanek/2401052-00402/"
4033,2401052-03602,"Sadowie OSP",50.4379999408,19.1217717987,"https://rj.metropoliaztm.pl/rozklady/przystanek/2401052-03602/"
1172,2414031-02802,"Hołdunów Imielińska",50.1517926600,19.1345226900,"https://rj.metropoliaztm.pl/rozklady/przystanek/2414031-02802/"
3936,2412014-00402,"Czuchów Szkoła",50.1697329000,18.6538168800,"https://rj.metropoliaztm.pl/rozklady/przystanek/2412014-00402/"
3238,2469011-11401,"Kolonia Agnieszki Promienna",50.2874428200,19.0074052500,"https://rj.metropoliaztm.pl/rozklady/przystanek/2469011-11401/"
3417,2475011-16903,"Zagórze Osiedle",50.2905453800,19.1793870700,"https://rj.metropoliaztm.pl/rozklady/przystanek/2475011-16903/"
4293,2476011-00101,"Chropaczów Konstantego Wolnego",50.3163939700,18.9165211600,"https://rj.metropoliaztm.pl/rozklady/przystanek/2476011-00101/"
3505,2470011-02302,"Ćmok Obrzeżna Zachodnia",50.2309625200,19.1178095300,"https://rj.metropoliaztm.pl/rozklady/przystanek/2470011-02302/"
884,GR07402,"granica CHOR - RUDA (Radoszowska)",50.2585396202,18.9355347176,"https://rj.metropoliaztm.pl/rozklady/przystanek/GR07402/"
1363,2472011-06501,"Kochłowice Radoszowska",50.2544013700,18.9185535900,"https://rj.metropoliaztm.pl/rozklady/przystanek/2472011-06501/"
1708,2462011-09601,"Miechowice Warszawska",50.3548665200,18.8637554400,"https://rj.metropoliaztm.pl/rozklady/przystanek/2462011-09601/"
3298,2472011-10701t,"Wirek Odrodzenia",50.2713554900,18.8731860900,"https://rj.metropoliaztm.pl/rozklady/przystanek/2472011-10701t/"
6062,2408042-01102,"Ornontowice Urząd Gminy",50.1830304600,18.7621426300,"https://rj.metropoliaztm.pl/rozklady/przystanek/2408042-01102/"
2795,2478011-13101,"Zabrze Struga",50.2898119300,18.7762403200,"https://rj.metropoliaztm.pl/rozklady/przystanek/2478011-13101/"
1635,2475011-04601,"Maczki Spacerowa",50.2629922500,19.2724550900,"https://rj.metropoliaztm.pl/rozklady/przystanek/2475011-04601/"
39,2474011-05002,"Siemianowice Rynek",50.3047185800,19.0272521700,"https://rj.metropoliaztm.pl/rozklady/przystanek/2474011-05002/"
669,2414031-00901,"Lędziny Droga do Górek",50.1224186100,19.1090488200,"https://rj.metropoliaztm.pl/rozklady/przystanek/2414031-00901/"
3690,2469011-18002,"Obroki Dulęby",50.2670420200,18.9680826400,"https://rj.metropoliaztm.pl/rozklady/przystanek/2469011-18002/"
3428,2475011-17502,"Zagórze Zajezdnia",50.2897505300,19.2066550200,"https://rj.metropoliaztm.pl/rozklady/przystanek/2475011-17502/"
5944,2405082-02702,"Zacharzowice Skrzyżowanie",50.4506180600,18.6109518700,"https://rj.metropoliaztm.pl/rozklady/przystanek/2405082-02702/"
1725,2478011-04102,"Mikulczyce 11 Listopada",50.3309432200,18.7760961000,"https://rj.metropoliaztm.pl/rozklady/przystanek/2478011-04102/"
142,2463011-01201,"Chorzów Batory Klonowa",50.2637637900,18.9364433000,"https://rj.metropoliaztm.pl/rozklady/przystanek/2463011-01201/"
3326,2462011-05202,"Bytom Wrocławska",50.3488285600,18.9117240600,"https://rj.metropoliaztm.pl/rozklady/przystanek/2462011-05202/"
7155,2413041-03001,"Strzybnica Osiedle nż",50.4856472886,18.7846105416,"https://rj.metropoliaztm.pl/rozklady/przystanek/2413041-03001/"
2526,2401042-02701,"Rogoźnik Narutowicza",50.3846138400,19.0377878900,"https://rj.metropoliaztm.pl/rozklady/przystanek/2401042-02701/"
8576,2476011-02331,"Świętochłowice Polna",50.2954950505,18.9172320231,"https://rj.metropoliaztm.pl/rozklady/przystanek/2476011-02331/"
4225,2401074-04102,"Osiedle Zachód Kościół",50.4729336400,19.2181146400,"https://rj.metropoliaztm.pl/rozklady/przystanek/2401074-04102/"
3076,2401011-07702,"Łagisza Pustkowie nż",50.3549215800,19.1212320300,"https://rj.metropoliaztm.pl/rozklady/przystanek/2401011-07702/"
2062,2475011-13001,"Sosnowiec Osiedle Piastów",50.2797070300,19.1121816400,"https://rj.metropoliaztm.pl/rozklady/przystanek/2475011-13001/"
8409,2466011-23927,"Gliwice Centrum Przesiadkowe",50.3024859800,18.6759278900,"https://rj.metropoliaztm.pl/rozklady/przystanek/2466011-23927/"
3985,2470011-02702,"Ćmok Tysiąclecia",50.2329525100,19.1173851200,"https://rj.metropoliaztm.pl/rozklady/przystanek/2470011-02702/"
93,2469011-20901,"Osiedle Tysiąclecia Ułańska",50.2856212300,18.9669252200,"https://rj.metropoliaztm.pl/rozklady/przystanek/2469011-20901/"
4656,2476011-00701t,"Lipiny Kościół",50.3073540100,18.9040422200,"https://rj.metropoliaztm.pl/rozklady/przystanek/2476011-00701t/"
3498,2466011-08101,"Gliwice Zygmunta Starego",50.2894832000,18.6560457900,"https://rj.metropoliaztm.pl/rozklady/przystanek/2466011-08101/"
5708,2405042-02001,"Kuźnia Nieborowska Skrzyżowanie",50.2139476900,18.6151146600,"https://rj.metropoliaztm.pl/rozklady/przystanek/2405042-02001/"
1454,2401011-05702,"Koszelew",50.3223589400,19.1567469100,"https://rj.metropoliaztm.pl/rozklady/przystanek/2401011-05702/"
5315,2471011-04201,"Szarlej Kaufland",50.3691370385,18.9430451723,"https://rj.metropoliaztm.pl/rozklady/przystanek/2471011-04201/"
5961,2405082-01102,"Świbie",50.5089107000,18.5386144700,"https://rj.metropoliaztm.pl/rozklady/przystanek/2405082-01102/"
3639,2401021-01302,"Czeladź Kopalnia Saturn",50.3089368300,19.0631937700,"https://rj.metropoliaztm.pl/rozklady/przystanek/2401021-01302/"
1335,2478011-02601,"Kończyce Noconiów",50.2683590300,18.7961268400,"https://rj.metropoliaztm.pl/rozklady/przystanek/2478011-02601/"
5592,2413031-01601,"Radzionków Knosały Sady nż",50.4107738800,18.8936734100,"https://rj.metropoliaztm.pl/rozklady/przystanek/2413031-01601/"
1942,2463011-03501,"Chorzów Łagiewnicka",50.3100153100,18.9416360600,"https://rj.metropoliaztm.pl/rozklady/przystanek/2463011-03501/"
7972,2413082-03601,"Wojska Powstańców Śląskich nż",50.4873846200,18.6723744600,"https://rj.metropoliaztm.pl/rozklady/przystanek/2413082-03601/"
6885,2462011-14101t,"Bytom Cmentarz Mater Dolorosa",50.3538635100,18.9206675600,"https://rj.metropoliaztm.pl/rozklady/przystanek/2462011-14101t/"
5050,2462011-00401t,"Bobrek Szkoła nż",50.3347715300,18.8692760400,"https://rj.metropoliaztm.pl/rozklady/przystanek/2462011-00401t/"
8956,2413092-09002,"Jasiona Boczna nż",50.4665522600,18.6842536000,"https://rj.metropoliaztm.pl/rozklady/przystanek/2413092-09002/"
1132,2472011-04102,"Halemba Orzeszkowej",50.2397874600,18.8734328500,"https://rj.metropoliaztm.pl/rozklady/przystanek/2472011-04102/"
4936,2405032-00401,"Chudów Zamek",50.2227394400,18.7686443100,"https://rj.metropoliaztm.pl/rozklady/przystanek/2405032-00401/"
11,2408021-05202,"Śmiłowice Biblioteka",50.1998207000,18.8624894400,"https://rj.metropoliaztm.pl/rozklady/przystanek/2408021-05202/"
3841,2413062-04102,"Pyrzowice Nowowiejska nż",50.4566687077,19.0708535566,"https://rj.metropoliaztm.pl/rozklady/przystanek/2413062-04102/"
8297,2405011-03504,"Knurów Różana nż",50.2330532600,18.6708508900,"https://rj.metropoliaztm.pl/rozklady/przystanek/2405011-03504/"
614,2401042-01301,"Bobrowniki Pustkowie",50.3867279600,19.0190827800,"https://rj.metropoliaztm.pl/rozklady/przystanek/2401042-01301/"
3480,2476011-02901t,"Zgoda Droga Kochłowicka",50.2777529800,18.9105438900,"https://rj.metropoliaztm.pl/rozklady/przystanek/2476011-02901t/"
5307,2401011-10501,"Grodziec Szkoła",50.3455014800,19.0851402200,"https://rj.metropoliaztm.pl/rozklady/przystanek/2401011-10501/"
603,2478011-09202,"Zabrze Damrota",50.3058629400,18.7681293200,"https://rj.metropoliaztm.pl/rozklady/przystanek/2478011-09202/"
4604,2462011-00601t,"Bytom Arki Bożka",50.3331865400,18.9400696500,"https://rj.metropoliaztm.pl/rozklady/przystanek/2462011-00601t/"
4079,2474011-03902,"Siemianowice Mysłowicka nż",50.2887494400,19.0547072600,"https://rj.metropoliaztm.pl/rozklady/przystanek/2474011-03902/"
7088,2463011-10601,"Chorzów Nowa Zakłady",50.3076445300,18.9578687900,"https://rj.metropoliaztm.pl/rozklady/przystanek/2463011-10601/"
168,2472011-00401,"Bielszowice Kolonia",50.2787063100,18.8301050600,"https://rj.metropoliaztm.pl/rozklady/przystanek/2472011-00401/"
1658,2401075-03602,"Marcinków nż",50.4216028600,19.2044663400,"https://rj.metropoliaztm.pl/rozklady/przystanek/2401075-03602/"
1763,2470011-06201,"Morgi Kościół",50.2048612900,19.1225993400,"https://rj.metropoliaztm.pl/rozklady/przystanek/2470011-06201/"
