stop_name,stop_code,stop_id,stop_lat,stop_lon,stop_url
Antoniów Konstytucji,2465011-00201,111,50.379208,19.239008,https://rj.metropoliaztm.pl/rozklady/przystanek/2465011-00201/
Antoniów Konstytucji,2465011-00202,112,50.379124,19.238922,https://rj.metropoliaztm.pl/rozklady/przystanek/2465011-00202/
Antoniów Skrzyżowanie,2465011-00303,115,50.374294,19.236046,https://rj.metropoliaztm.pl/rozklady/przystanek/2465011-00303/
Antoniów Skrzyżowanie,2465011-00304,8322,50.375072,19.236391,https://rj.metropoliaztm.pl/rozklady/przystanek/2465011-00304/
Antoniów Spacerowa,2465011-19901,5228,50.372307,19.230322,https://rj.metropoliaztm.pl/rozklady/przystanek/2465011-19901/
Antoniów Spacerowa,2465011-19902,5229,50.372307,19.22985,https://rj.metropoliaztm.pl/rozklady/przystanek/2465011-19902/
Babice ul. Śląska I,1213062-01212,6738,50.053123,19.201681,https://rj.metropoliaztm.pl/rozklady/przystanek/1213062-01212/
Babice ul. Śląska I,1213062-01213,6751,50.053665,19.201258,https://rj.metropoliaztm.pl/rozklady/przystanek/1213062-01213/
Babice ul. Śląska II,1213062-01310,6750,50.05622,19.198742,https://rj.metropoliaztm.pl/rozklady/przystanek/1213062-01310/
Babice ul. Śląska II,1213062-01311,6739,50.0565,19.198698,https://rj.metropoliaztm.pl/rozklady/przystanek/1213062-01311/
Bańgów Kościół,2474011-00301,120,50.32938,19.042433,https://rj.metropoliaztm.pl/rozklady/przystanek/2474011-00301/
Bańgów Kościół,2474011-00302,121,50.32946,19.042143,https://rj.metropoliaztm.pl/rozklady/przystanek/2474011-00302/
Bańgów Krupanka,2474011-00101,118,50.328125,19.026157,https://rj.metropoliaztm.pl/rozklady/przystanek/2474011-00101/
Bańgów Krupanka,2474011-00102,119,50.328236,19.023346,https://rj.metropoliaztm.pl/rozklady/przystanek/2474011-00102/
Bańgów Przychodnia nż,2474011-07401,7287,50.32694,19.030813,https://rj.metropoliaztm.pl/rozklady/przystanek/2474011-07401/
Bańgów Przychodnia nż,2474011-07402,7286,50.32714,19.030964,https://rj.metropoliaztm.pl/rozklady/przystanek/2474011-07402/
Bańgów Strefa,2474011-06201,5271,50.321712,19.045856,https://rj.metropoliaztm.pl/rozklady/przystanek/2474011-06201/
Bańgów Strefa,2474011-06202,5269,50.322598,19.043013,https://rj.metropoliaztm.pl/rozklady/przystanek/2474011-06202/
Bańgów Strefa Zakłady,2474011-06301,5270,50.322517,19.045202,https://rj.metropoliaztm.pl/rozklady/przystanek/2474011-06301/
Bańgów Zachodnia,2474011-00201,122,50.32708,19.03488,https://rj.metropoliaztm.pl/rozklady/przystanek/2474011-00201/
Bańgów Zachodnia,2474011-00202,123,50.32734,19.03473,https://rj.metropoliaztm.pl/rozklady/przystanek/2474011-00202/
Bańgów Zwycięstwa nż,2474011-00401,4874,50.327515,19.021608,https://rj.metropoliaztm.pl/rozklady/przystanek/2474011-00401/
Bibiela Droga do Żyglina nż,2413021-01101,5985,50.49514,19.001074,https://rj.metropoliaztm.pl/rozklady/przystanek/2413021-01101/
Bibiela Droga do Żyglina nż,2413021-01102,5986,50.495163,19.000881,https://rj.metropoliaztm.pl/rozklady/przystanek/2413021-01102/
Bibiela Kościół,2413021-01201,3805,50.504177,19.009464,https://rj.metropoliaztm.pl/rozklady/przystanek/2413021-01201/
Bibiela Kościół,2413021-01202,3804,50.504314,19.009314,https://rj.metropoliaztm.pl/rozklady/przystanek/2413021-01202/
Bibiela Leśniczówka,2413021-01001,3806,50.492,19.00044,https://rj.metropoliaztm.pl/rozklady/przystanek/2413021-01001/
Bibiela Leśniczówka,2413021-01002,3807,50.49201,19.000172,https://rj.metropoliaztm.pl/rozklady/przystanek/2413021-01002/
Bibiela Pętla,2413021-01301,3803,50.503536,19.016254,https://rj.metropoliaztm.pl/rozklady/przystanek/2413021-01301/
Bielszowice Chroboka,2472011-00101,4891,50.267105,18.83121,https://rj.metropoliaztm.pl/rozklady/przystanek/2472011-00101/
Bielszowice Chroboka,2472011-00102,4892,50.266876,18.83011,https://rj.metropoliaztm.pl/rozklady/przystanek/2472011-00102/
Bielszowice Fińskie Domki,2472011-00201,164,50.26488,18.809666,https://rj.metropoliaztm.pl/rozklady/przystanek/2472011-00201/
Bielszowice Fińskie Domki,2472011-00202,165,50.264767,18.809807,https://rj.metropoliaztm.pl/rozklady/przystanek/2472011-00202/
Bielszowice Kokota,2472011-00301,166,50.27204,18.845667,https://rj.metropoliaztm.pl/rozklady/przystanek/2472011-00301/
Bielszowice Kokota,2472011-00302,167,50.27157,18.845066,https://rj.metropoliaztm.pl/rozklady/przystanek/2472011-00302/
Bielszowice Kolonia,2472011-00401,168,50.278584,18.830034,https://rj.metropoliaztm.pl/rozklady/przystanek/2472011-00401/
Bielszowice Kolonia,2472011-00402,169,50.278698,18.829798,https://rj.metropoliaztm.pl/rozklady/przystanek/2472011-00402/
Bielszowice Kopalnia,2472011-00501,170,50.267864,18.836435,https://rj.metropoliaztm.pl/rozklady/przystanek/2472011-00501/
Bielszowice Kopalnia,2472011-00502,171,50.267994,18.83711,https://rj.metropoliaztm.pl/rozklady/przystanek/2472011-00502/
Bielszowice Kopalnia,2472011-00503,172,50.266735,18.835758,https://rj.metropoliaztm.pl/rozklady/przystanek/2472011-00503/
Bielszowice Most,2472011-00601,173,50.265102,18.823008,https://rj.metropoliaztm.pl/rozklady/przystanek/2472011-00601/
Bielszowice Most,2472011-00602,174,50.264614,18.822664,https://rj.metropoliaztm.pl/rozklady/przystanek/2472011-00602/
Bielszowice Na Piaski,2472011-00701,162,50.271664,18.831827,https://rj.metropoliaztm.pl/rozklady/przystanek/2472011-00701/
Bielszowice Na Piaski,2472011-00702,163,50.27194,18.831547,https://rj.metropoliaztm.pl/rozklady/przystanek/2472011-00702/
Bielszowice Przychodnia nż,2472011-00801,4099,50.275146,18.83093,https://rj.metropoliaztm.pl/rozklady/przystanek/2472011-00801/
Bielszowice Przychodnia nż,2472011-00802,4100,50.274586,18.830835,https://rj.metropoliaztm.pl/rozklady/przystanek/2472011-00802/
Bielszowice Pętla,2472011-00901,175,50.26967,18.841606,https://rj.metropoliaztm.pl/rozklady/przystanek/2472011-00901/
Bielszowice Szpital,2472011-01001,176,50.27597,18.854277,https://rj.metropoliaztm.pl/rozklady/przystanek/2472011-01001/
Bielszowice Szpital,2472011-01002,177,50.27591,18.85504,https://rj.metropoliaztm.pl/rozklady/przystanek/2472011-01002/
Bieruń Baraniec,2414011-00101,6693,50.085667,19.10526,https://rj.metropoliaztm.pl/rozklady/przystanek/2414011-00101/
Bieruń Baraniec,2414011-00102,6686,50.085766,19.104435,https://rj.metropoliaztm.pl/rozklady/przystanek/2414011-00102/
Bieruń Baza Transportowa,2414011-00201,6805,50.092358,19.061539,https://rj.metropoliaztm.pl/rozklady/przystanek/2414011-00201/
Bieruń Baza Transportowa,2414011-00202,6803,50.09227,19.062172,https://rj.metropoliaztm.pl/rozklady/przystanek/2414011-00202/
Bieruń Bohaterów Westerplatte 57,2414011-03903,9157,50.071564,19.186977,https://rj.metropoliaztm.pl/rozklady/przystanek/2414011-03903/
Bieruń Bohaterów Westerplatte 7,2414011-04001,9158,50.073788,19.186804,https://rj.metropoliaztm.pl/rozklady/przystanek/2414011-04001/
Bieruń Dom Kultury,2414011-00501,183,50.084965,19.084652,https://rj.metropoliaztm.pl/rozklady/przystanek/2414011-00501/
Bieruń Dom Kultury,2414011-00504,182,50.084908,19.084673,https://rj.metropoliaztm.pl/rozklady/przystanek/2414011-00504/
Bieruń Domy Polne Pętla,2414011-00603,10071,50.092064,19.066252,https://rj.metropoliaztm.pl/rozklady/przystanek/2414011-00603/
Bieruń Ekonomiczna,2414011-00901,8871,50.100555,19.104048,https://rj.metropoliaztm.pl/rozklady/przystanek/2414011-00901/
Bieruń Ekonomiczna,2414011-00902,8870,50.099617,19.104961,https://rj.metropoliaztm.pl/rozklady/przystanek/2414011-00902/
Bieruń FSM II,2414011-01102,6389,50.102734,19.088072,https://rj.metropoliaztm.pl/rozklady/przystanek/2414011-01102/
Bieruń Granitowa,2414011-01205,6699,50.080593,19.15516,https://rj.metropoliaztm.pl/rozklady/przystanek/2414011-01205/
Bieruń Granitowa,2414011-01206,6712,50.080498,19.155043,https://rj.metropoliaztm.pl/rozklady/przystanek/2414011-01206/
Bieruń Groblana,2414011-01301,6723,50.066193,19.162832,https://rj.metropoliaztm.pl/rozklady/przystanek/2414011-01301/
Bieruń Groblana,2414011-01302,6716,50.066322,19.162333,https://rj.metropoliaztm.pl/rozklady/przystanek/2414011-01302/
Bieruń Hager,2414011-03005,8881,50.09497,19.107706,https://rj.metropoliaztm.pl/rozklady/przystanek/2414011-03005/
Bieruń Hager,2414011-03006,8880,50.094936,19.10787,https://rj.metropoliaztm.pl/rozklady/przystanek/2414011-03006/
Bieruń KWK Piast,2414011-01707,6700,50.07932,19.163143,https://rj.metropoliaztm.pl/rozklady/przystanek/2414011-01707/
Bieruń KWK Piast,2414011-01708,6713,50.079197,19.162554,https://rj.metropoliaztm.pl/rozklady/przystanek/2414011-01708/
Bieruń Kościół,2414011-01612,6714,50.073627,19.180546,https://rj.metropoliaztm.pl/rozklady/przystanek/2414011-01612/
Bieruń Krupnicza,2414011-00303,6852,50.063137,19.148119,https://rj.metropoliaztm.pl/rozklady/przystanek/2414011-00303/
Bieruń Królowej Jadwigi,2414011-04431,10154,50.07424,19.17387,https://rj.metropoliaztm.pl/rozklady/przystanek/2414011-04431/
Bieruń Królowej Jadwigi,2414011-04432,10153,50.073826,19.173426,https://rj.metropoliaztm.pl/rozklady/przystanek/2414011-04432/
Bieruń Logistyczna,2414011-03501,8101,50.100822,19.071884,https://rj.metropoliaztm.pl/rozklady/przystanek/2414011-03501/
Bieruń Majowa,2414011-01801,10074,50.06949,19.164164,https://rj.metropoliaztm.pl/rozklady/przystanek/2414011-01801/
Bieruń Majowa,2414011-01802,6722,50.071217,19.166061,https://rj.metropoliaztm.pl/rozklady/przystanek/2414011-01802/
Bieruń Nowy Dworzec,2414011-04531,10315,50.0743,19.183865,https://rj.metropoliaztm.pl/rozklady/przystanek/2414011-04531/
Bieruń Osiedle,2414011-01909,3994,50.078644,19.171555,https://rj.metropoliaztm.pl/rozklady/przystanek/2414011-01909/
Bieruń Osiedle,2414011-01910,3995,50.078697,19.16957,https://rj.metropoliaztm.pl/rozklady/przystanek/2414011-01910/
Bieruń Osiedle Homera,2414011-02004,6387,50.099804,19.083107,https://rj.metropoliaztm.pl/rozklady/przystanek/2414011-02004/
Bieruń Osiedle Wygoda,2414011-02102,6385,50.10249,19.06255,https://rj.metropoliaztm.pl/rozklady/przystanek/2414011-02102/
Bieruń Patriotów,2414011-04202,9161,50.067448,19.189274,https://rj.metropoliaztm.pl/rozklady/przystanek/2414011-04202/
Bieruń Patriotów,2414011-04231,9162,50.06747,19.189146,https://rj.metropoliaztm.pl/rozklady/przystanek/2414011-04231/
Bieruń Patriotów Wiadukt,2414011-03805,9155,50.068806,19.190172,https://rj.metropoliaztm.pl/rozklady/przystanek/2414011-03805/
Bieruń Patriotów Wiadukt,2414011-03807,9156,50.068153,19.191343,https://rj.metropoliaztm.pl/rozklady/przystanek/2414011-03807/
Bieruń Plac Autobusowy,2414011-02201,6687,50.089226,19.091528,https://rj.metropoliaztm.pl/rozklady/przystanek/2414011-02201/
Bieruń Plac Autobusowy,2414011-02202,6688,50.08913,19.09155,https://rj.metropoliaztm.pl/rozklady/przystanek/2414011-02202/
Bieruń Plac Autobusowy,2414011-02203,6690,50.089054,19.091614,https://rj.metropoliaztm.pl/rozklady/przystanek/2414011-02203/
Bieruń Plac Autobusowy,2414011-02204,6689,50.08897,19.091679,https://rj.metropoliaztm.pl/rozklady/przystanek/2414011-02204/
Bieruń Plac Autobusowy,2414011-02205,6691,50.08889,19.091753,https://rj.metropoliaztm.pl/rozklady/przystanek/2414011-02205/
Bieruń Plac Autobusowy,2414011-02206,6692,50.0888,19.091764,https://rj.metropoliaztm.pl/rozklady/przystanek/2414011-02206/
Bieruń Plac Nobla,2414011-02306,184,50.081,19.081495,https://rj.metropoliaztm.pl/rozklady/przystanek/2414011-02306/
Bieruń Poczta,2414011-02403,3996,50.075794,19.18002,https://rj.metropoliaztm.pl/rozklady/przystanek/2414011-02403/
Bieruń Potok Stawowy,2414011-00702,6081,50.08975,19.091888,https://rj.metropoliaztm.pl/rozklady/przystanek/2414011-00702/
Bieruń Pętla,2414011-03315,6717,50.065445,19.191555,https://rj.metropoliaztm.pl/rozklady/przystanek/2414011-03315/
Bieruń Rudnik,2414011-02501,6682,50.103184,19.097559,https://rj.metropoliaztm.pl/rozklady/przystanek/2414011-02501/
Bieruń Rudnik,2414011-02502,6080,50.10233,19.0936,https://rj.metropoliaztm.pl/rozklady/przystanek/2414011-02502/
Bieruń Rudnik,2414011-02503,8223,50.10294,19.097687,https://rj.metropoliaztm.pl/rozklady/przystanek/2414011-02503/
Bieruń Równoległa,2414011-04102,9159,50.07445,19.19397,https://rj.metropoliaztm.pl/rozklady/przystanek/2414011-04102/
Bieruń Stacja Paliw,2414011-02603,6685,50.084545,19.11068,https://rj.metropoliaztm.pl/rozklady/przystanek/2414011-02603/
Bieruń Stacja Paliw,2414011-02604,6694,50.08452,19.110046,https://rj.metropoliaztm.pl/rozklady/przystanek/2414011-02604/
Bieruń Strefa,2414011-02703,6683,50.10136,19.098652,https://rj.metropoliaztm.pl/rozklady/przystanek/2414011-02703/
Bieruń Strefa,2414011-02704,6681,50.10142,19.098438,https://rj.metropoliaztm.pl/rozklady/przystanek/2414011-02704/
Bieruń Szkolna,2414011-01004,6724,50.063942,19.151749,https://rj.metropoliaztm.pl/rozklady/przystanek/2414011-01004/
Bieruń Turystyczna I,2414011-00401,10067,50.076153,19.12736,https://rj.metropoliaztm.pl/rozklady/przystanek/2414011-00401/
Bieruń Turystyczna I,2414011-00402,10069,50.07634,19.127459,https://rj.metropoliaztm.pl/rozklady/przystanek/2414011-00402/
Bieruń Turystyczna II,2414011-01403,10068,50.067284,19.115013,https://rj.metropoliaztm.pl/rozklady/przystanek/2414011-01403/
Bieruń Turystyczna II,2414011-01404,10070,50.066216,19.113468,https://rj.metropoliaztm.pl/rozklady/przystanek/2414011-01404/
Bieruń Turyńska,2414011-00801,5032,50.104862,19.097124,https://rj.metropoliaztm.pl/rozklady/przystanek/2414011-00801/
Bieruń Warszawska Skrzyżowanie,2414011-02911,5672,50.07618,19.177553,https://rj.metropoliaztm.pl/rozklady/przystanek/2414011-02911/
Bieruń Wawelska Paciorkowce,2414011-03701,10065,50.07718,19.190523,https://rj.metropoliaztm.pl/rozklady/przystanek/2414011-03701/
Bieruń Wawelska Paciorkowce,2414011-03702,10066,50.077026,19.190147,https://rj.metropoliaztm.pl/rozklady/przystanek/2414011-03702/
Bieruń Wawelska Skrzyżowanie,2414011-03104,6720,50.0751,19.17752,https://rj.metropoliaztm.pl/rozklady/przystanek/2414011-03104/
Bieruń Wawelska Skrzyżowanie,2414011-03105,6715,50.07509,19.177746,https://rj.metropoliaztm.pl/rozklady/przystanek/2414011-03105/
Bieruń Zabrzeg,2414011-03213,6719,50.067112,19.189064,https://rj.metropoliaztm.pl/rozklady/przystanek/2414011-03213/
Bieruń Zabrzeg,2414011-03214,6721,50.06749,19.188356,https://rj.metropoliaztm.pl/rozklady/przystanek/2414011-03214/
Bieruń Zarzyna,2414011-03403,6709,50.083424,19.141161,https://rj.metropoliaztm.pl/rozklady/przystanek/2414011-03403/
Bieruń Zarzyna,2414011-03404,6698,50.08327,19.141954,https://rj.metropoliaztm.pl/rozklady/przystanek/2414011-03404/
Bieruń Ściernie,2414011-02801,6695,50.083755,19.13365,https://rj.metropoliaztm.pl/rozklady/przystanek/2414011-02801/
Bieruń Ściernie,2414011-02802,6708,50.083714,19.132534,https://rj.metropoliaztm.pl/rozklady/przystanek/2414011-02802/
Biskupice Brondera nż,2478011-00101,285,50.317963,18.811184,https://rj.metropoliaztm.pl/rozklady/przystanek/2478011-00101/
Biskupice Brondera nż,2478011-00102,286,50.31806,18.811018,https://rj.metropoliaztm.pl/rozklady/przystanek/2478011-00102/
Biskupice Bytomska [tech],2478011-09601t,8591,50.326496,18.831446,https://rj.metropoliaztm.pl/rozklady/przystanek/2478011-09601t/
Biskupice Bytomska [tech],2478011-09602t,8592,50.326473,18.83133,https://rj.metropoliaztm.pl/rozklady/przystanek/2478011-09602t/
Biskupice Kasprowicza,2478011-10401,1280,50.315063,18.795794,https://rj.metropoliaztm.pl/rozklady/przystanek/2478011-10401/
Biskupice Kasprowicza,2478011-10402,1281,50.31528,18.795803,https://rj.metropoliaztm.pl/rozklady/przystanek/2478011-10402/
Biskupice Koksownia nż,2478011-15101,5599,50.333042,18.835125,https://rj.metropoliaztm.pl/rozklady/przystanek/2478011-15101/
Biskupice Koksownia nż,2478011-15102,5598,50.33261,18.834768,https://rj.metropoliaztm.pl/rozklady/przystanek/2478011-15102/
Biskupice Kościół,2478011-00701,189,50.319668,18.82173,https://rj.metropoliaztm.pl/rozklady/przystanek/2478011-00701/
Biskupice Kościół,2478011-00701t,190,50.319786,18.82186,https://rj.metropoliaztm.pl/rozklady/przystanek/2478011-00701t/
Biskupice Kościół,2478011-00702,191,50.31983,18.821688,https://rj.metropoliaztm.pl/rozklady/przystanek/2478011-00702/
Biskupice Kościół,2478011-00702t,192,50.319744,18.82157,https://rj.metropoliaztm.pl/rozklady/przystanek/2478011-00702t/
Biskupice Młyńska,2478011-00801,195,50.31796,18.816368,https://rj.metropoliaztm.pl/rozklady/przystanek/2478011-00801/
Biskupice Młyńska,2478011-00801t,196,50.318073,18.816603,https://rj.metropoliaztm.pl/rozklady/przystanek/2478011-00801t/
Biskupice Młyńska,2478011-00802,197,50.31821,18.816454,https://rj.metropoliaztm.pl/rozklady/przystanek/2478011-00802/
Biskupice Młyńska,2478011-00802t,198,50.318115,18.8162,https://rj.metropoliaztm.pl/rozklady/przystanek/2478011-00802t/
Biskupice Ogródki Działkowe nż,2478011-00901,199,50.318222,18.80368,https://rj.metropoliaztm.pl/rozklady/przystanek/2478011-00901/
Biskupice Ogródki Działkowe nż,2478011-00902,200,50.318325,18.803528,https://rj.metropoliaztm.pl/rozklady/przystanek/2478011-00902/
Biskupice Pętla,2478011-01101t,4676,50.330017,18.8407,https://rj.metropoliaztm.pl/rozklady/przystanek/2478011-01101t/
Biskupice Pętla,2478011-01102t,4678,50.32988,18.840523,https://rj.metropoliaztm.pl/rozklady/przystanek/2478011-01102t/
Biskupice Pętla,2478011-01104t,4680,50.329994,18.840689,https://rj.metropoliaztm.pl/rozklady/przystanek/2478011-01104t/
Biskupice Schronisko nż,2478011-03401t,9049,50.33058,18.855677,https://rj.metropoliaztm.pl/rozklady/przystanek/2478011-03401t/
Biskupice Schronisko nż,2478011-03401t,9050,50.33077,18.855442,https://rj.metropoliaztm.pl/rozklady/przystanek/2478011-03401t/
Biskupice Szyb Wschodni,2478011-01201,9962,50.329536,18.843908,https://rj.metropoliaztm.pl/rozklady/przystanek/2478011-01201/
Biskupice Szyb Wschodni,2478011-01202,9963,50.329563,18.844423,https://rj.metropoliaztm.pl/rozklady/przystanek/2478011-01202/
Biskupice Trębacka,2478011-01301,203,50.32114,18.82605,https://rj.metropoliaztm.pl/rozklady/przystanek/2478011-01301/
Biskupice Trębacka,2478011-01302,204,50.320877,18.826435,https://rj.metropoliaztm.pl/rozklady/przystanek/2478011-01302/
Biskupice Zamkowa,2478011-01401,205,50.325222,18.83047,https://rj.metropoliaztm.pl/rozklady/przystanek/2478011-01401/
Biskupice Zamkowa,2478011-01401t,206,50.324905,18.829996,https://rj.metropoliaztm.pl/rozklady/przystanek/2478011-01401t/
Biskupice Zamkowa,2478011-01402,207,50.325104,18.830105,https://rj.metropoliaztm.pl/rozklady/przystanek/2478011-01402/
Biskupice Zamkowa,2478011-01402t,208,50.324905,18.829762,https://rj.metropoliaztm.pl/rozklady/przystanek/2478011-01402t/
Biskupice Zamkowa,2478011-01403,7292,50.324455,18.830297,https://rj.metropoliaztm.pl/rozklady/przystanek/2478011-01403/
Biskupice Zarząd Dróg nż,2478011-15401,5601,50.31731,18.799837,https://rj.metropoliaztm.pl/rozklady/przystanek/2478011-15401/
Biskupice Zarząd Dróg nż,2478011-15402,5600,50.31774,18.800138,https://rj.metropoliaztm.pl/rozklady/przystanek/2478011-15402/
Biskupice Ziemska nż,2478011-01501,4898,50.32779,18.834084,https://rj.metropoliaztm.pl/rozklady/przystanek/2478011-01501/
Biskupice Ziemska nż,2478011-01501t,4899,50.327896,18.833912,https://rj.metropoliaztm.pl/rozklady/przystanek/2478011-01501t/
Biskupice Ziemska nż,2478011-01502,5565,50.32778,18.83371,https://rj.metropoliaztm.pl/rozklady/przystanek/2478011-01502/
Biskupice Ziemska nż,2478011-01502t,4900,50.327858,18.833601,https://rj.metropoliaztm.pl/rozklady/przystanek/2478011-01502t/
Bizja nż,2413072-00601,209,50.45094,18.980925,https://rj.metropoliaztm.pl/rozklady/przystanek/2413072-00601/
Bizja nż,2413072-00602,210,50.45107,18.98004,https://rj.metropoliaztm.pl/rozklady/przystanek/2413072-00602/
Bobrek Bronowa,2475011-00101,214,50.252403,19.178068,https://rj.metropoliaztm.pl/rozklady/przystanek/2475011-00101/
Bobrek Bronowa,2475011-00102,215,50.252495,19.178442,https://rj.metropoliaztm.pl/rozklady/przystanek/2475011-00102/
Bobrek Bronowa  nż,2475011-00201,5060,50.25809,19.184956,https://rj.metropoliaztm.pl/rozklady/przystanek/2475011-00201/
Bobrek Bronowa  nż,2475011-00202,5061,50.25817,19.185263,https://rj.metropoliaztm.pl/rozklady/przystanek/2475011-00202/
Bobrek Huta Julia,2462011-00201,220,50.338318,18.8689,https://rj.metropoliaztm.pl/rozklady/przystanek/2462011-00201/
Bobrek Innowacyjna,2475011-20602,5675,50.26058,19.193298,https://rj.metropoliaztm.pl/rozklady/przystanek/2475011-20602/
Bobrek Innowacyjna,2475011-20603,6090,50.261395,19.193686,https://rj.metropoliaztm.pl/rozklady/przystanek/2475011-20603/
Bobrek Inwestycyjna Pętla I,2475011-21701,6091,50.26034,19.201971,https://rj.metropoliaztm.pl/rozklady/przystanek/2475011-21701/
Bobrek Inwestycyjna Pętla II,2475011-21601,6092,50.25254,19.199955,https://rj.metropoliaztm.pl/rozklady/przystanek/2475011-21601/
Bobrek Inwestycyjna Wiadukt,2475011-22101,8319,50.25754,19.207508,https://rj.metropoliaztm.pl/rozklady/przystanek/2475011-22101/
Bobrek Logistyczna,2475011-20702,5677,50.25654,19.189074,https://rj.metropoliaztm.pl/rozklady/przystanek/2475011-20702/
Bobrek Okulickiego,2475011-00301,218,50.261597,19.188688,https://rj.metropoliaztm.pl/rozklady/przystanek/2475011-00301/
Bobrek Okulickiego,2475011-00302,219,50.26173,19.189054,https://rj.metropoliaztm.pl/rozklady/przystanek/2475011-00302/
Bobrek Osiedle Pod Brzozami,2462011-00101,4666,50.331203,18.864351,https://rj.metropoliaztm.pl/rozklady/przystanek/2462011-00101/
Bobrek Osiedle Pod Brzozami,2462011-00101t,4667,50.33103,18.864416,https://rj.metropoliaztm.pl/rozklady/przystanek/2462011-00101t/
Bobrek Osiedle Pod Brzozami,2462011-00102t,4668,50.33085,18.86447,https://rj.metropoliaztm.pl/rozklady/przystanek/2462011-00102t/
Bobrek Ratusz,2462011-00301,221,50.33806,18.870499,https://rj.metropoliaztm.pl/rozklady/przystanek/2462011-00301/
Bobrek Ratusz,2462011-00301t,222,50.33804,18.870611,https://rj.metropoliaztm.pl/rozklady/przystanek/2462011-00301t/
Bobrek Ratusz,2462011-00302,223,50.336765,18.869442,https://rj.metropoliaztm.pl/rozklady/przystanek/2462011-00302/
Bobrek Ratusz,2462011-00302t,224,50.337116,18.869312,https://rj.metropoliaztm.pl/rozklady/przystanek/2462011-00302t/
Bobrek Szkoła,2462011-00402t,8692,50.33493,18.869404,https://rj.metropoliaztm.pl/rozklady/przystanek/2462011-00402t/
Bobrek Szkoła nż,2462011-00401,5566,50.334137,18.867992,https://rj.metropoliaztm.pl/rozklady/przystanek/2462011-00401/
Bobrek Szkoła nż,2462011-00401t,5050,50.33485,18.869318,https://rj.metropoliaztm.pl/rozklady/przystanek/2462011-00401t/
Bobrek Szkoła nż,2462011-00402,5655,50.334713,18.869297,https://rj.metropoliaztm.pl/rozklady/przystanek/2462011-00402/
Bobrek Wytrwałych,2462011-00501,5654,50.339027,18.87318,https://rj.metropoliaztm.pl/rozklady/przystanek/2462011-00501/
Bobrek Wytrwałych,2462011-00501t,4664,50.339096,18.873106,https://rj.metropoliaztm.pl/rozklady/przystanek/2462011-00501t/
Bobrek Wytrwałych,2462011-00502,5653,50.338837,18.87305,https://rj.metropoliaztm.pl/rozklady/przystanek/2462011-00502/
Bobrek Wytrwałych,2462011-00502t,4665,50.339146,18.873566,https://rj.metropoliaztm.pl/rozklady/przystanek/2462011-00502t/
Bobrowniki 1 Maja,2401042-00101,243,50.379803,18.978971,https://rj.metropoliaztm.pl/rozklady/przystanek/2401042-00101/
Bobrowniki 1 Maja,2401042-00102,244,50.379784,18.978962,https://rj.metropoliaztm.pl/rozklady/przystanek/2401042-00102/
Bobrowniki Dąbrowskiej nż,2401042-00901,4080,50.39235,19.019426,https://rj.metropoliaztm.pl/rozklady/przystanek/2401042-00901/
Bobrowniki Dąbrowskiej nż,2401042-00902,4081,50.392345,19.01963,https://rj.metropoliaztm.pl/rozklady/przystanek/2401042-00902/
Bobrowniki Kościół,2401042-00201,228,50.379333,18.98832,https://rj.metropoliaztm.pl/rozklady/przystanek/2401042-00201/
Bobrowniki Kościół,2401042-00202,229,50.37934,18.989546,https://rj.metropoliaztm.pl/rozklady/przystanek/2401042-00202/
Bobrowniki Namiarki,2401042-00301,232,50.375687,18.965025,https://rj.metropoliaztm.pl/rozklady/przystanek/2401042-00301/
Bobrowniki Namiarki,2401042-00302,233,50.375626,18.965239,https://rj.metropoliaztm.pl/rozklady/przystanek/2401042-00302/
Bobrowniki Pustkowie,2401042-01301,614,50.386726,19.019083,https://rj.metropoliaztm.pl/rozklady/przystanek/2401042-01301/
Bobrowniki Pustkowie,2401042-01302,615,50.38674,19.019201,https://rj.metropoliaztm.pl/rozklady/przystanek/2401042-01302/
Bobrowniki Remiza,2401042-00401,245,50.38056,19.00022,https://rj.metropoliaztm.pl/rozklady/przystanek/2401042-00401/
Bobrowniki Remiza,2401042-00402,246,50.380352,19.000748,https://rj.metropoliaztm.pl/rozklady/przystanek/2401042-00402/
Bobrowniki Rondo,2401042-00501,239,50.37273,18.976763,https://rj.metropoliaztm.pl/rozklady/przystanek/2401042-00501/
Bobrowniki Rondo,2401042-00502,240,50.372654,18.976795,https://rj.metropoliaztm.pl/rozklady/przystanek/2401042-00502/
Bobrowniki Sienkiewicza,2401042-00601,236,50.37964,19.009642,https://rj.metropoliaztm.pl/rozklady/przystanek/2401042-00601/
Bobrowniki Sienkiewicza,2401042-00602,237,50.37975,19.009706,https://rj.metropoliaztm.pl/rozklady/przystanek/2401042-00602/
Bobrowniki Stadion nż,2401042-00801,241,50.38623,19.006985,https://rj.metropoliaztm.pl/rozklady/przystanek/2401042-00801/
Bobrowniki Stadion nż,2401042-00802,242,50.386475,19.007185,https://rj.metropoliaztm.pl/rozklady/przystanek/2401042-00802/
Bobrowniki Słowackiego nż,2401042-00701,230,50.380802,19.005575,https://rj.metropoliaztm.pl/rozklady/przystanek/2401042-00701/
Bobrowniki Słowackiego nż,2401042-00702,231,50.381,19.0058,https://rj.metropoliaztm.pl/rozklady/przystanek/2401042-00702/
Bobrowniki Śląskie,2413041-06101,4789,50.42306,18.86751,https://rj.metropoliaztm.pl/rozklady/przystanek/2413041-06101/
Bobrowniki Śląskie,2413041-06102,4790,50.4249,18.867767,https://rj.metropoliaztm.pl/rozklady/przystanek/2413041-06102/
Bobrowniki Śląskie,2413041-06103,4791,50.423744,18.868484,https://rj.metropoliaztm.pl/rozklady/przystanek/2413041-06103/
Bobrowniki Śląskie Bolesława Śmiałego,2413041-06501,227,50.428432,18.872892,https://rj.metropoliaztm.pl/rozklady/przystanek/2413041-06501/
Bobrowniki Śląskie Pawilon Handlowy,2413041-06401,2210,50.426464,18.875147,https://rj.metropoliaztm.pl/rozklady/przystanek/2413041-06401/
Bobrowniki Śląskie Poczta,2413041-06001,225,50.423725,18.864775,https://rj.metropoliaztm.pl/rozklady/przystanek/2413041-06001/
Bobrowniki Śląskie Poczta,2413041-06002,226,50.423676,18.864538,https://rj.metropoliaztm.pl/rozklady/przystanek/2413041-06002/
Bobrowniki Śląskie Radzionkowska,2413041-06201,235,50.4211,18.87701,https://rj.metropoliaztm.pl/rozklady/przystanek/2413041-06201/
Bobrowniki Śląskie Radzionkowska,2413041-06202,234,50.421204,18.877274,https://rj.metropoliaztm.pl/rozklady/przystanek/2413041-06202/
Bobrowniki Śląskie Sikorskiego,2413041-06301,238,50.421455,18.881834,https://rj.metropoliaztm.pl/rozklady/przystanek/2413041-06301/
Boguchwałowice,2401052-00401,4118,50.454395,19.174217,https://rj.metropoliaztm.pl/rozklady/przystanek/2401052-00401/
Boguchwałowice,2401052-00402,4119,50.45423,19.173016,https://rj.metropoliaztm.pl/rozklady/przystanek/2401052-00402/
Boguchwałowice Buczka,2401052-05001,5721,50.448097,19.185076,https://rj.metropoliaztm.pl/rozklady/przystanek/2401052-05001/
Boguchwałowice OSP,2401052-04901,5720,50.452957,19.174387,https://rj.metropoliaztm.pl/rozklady/przystanek/2401052-04901/
Boguchwałowice Sklep,2401052-00601,5391,50.454742,19.184216,https://rj.metropoliaztm.pl/rozklady/przystanek/2401052-00601/
Boguchwałowice Sklep,2401052-00602,4905,50.454857,19.185513,https://rj.metropoliaztm.pl/rozklady/przystanek/2401052-00602/
Boguchwałowice Swobody,2401052-00502,4906,50.45459,19.176544,https://rj.metropoliaztm.pl/rozklady/przystanek/2401052-00502/
Boguchwałowice Zalew nż,2401052-00701,4120,50.454914,19.190397,https://rj.metropoliaztm.pl/rozklady/przystanek/2401052-00701/
Boguchwałowice Zalew nż,2401052-00702,4121,50.455044,19.190428,https://rj.metropoliaztm.pl/rozklady/przystanek/2401052-00702/
Bogucice Cmentarz,2469011-07101,247,50.272335,19.047573,https://rj.metropoliaztm.pl/rozklady/przystanek/2469011-07101/
Bogucice Cmentarz,2469011-07102,248,50.27237,19.04695,https://rj.metropoliaztm.pl/rozklady/przystanek/2469011-07102/
Bogucice Kościół,2469011-07201,249,50.269276,19.035986,https://rj.metropoliaztm.pl/rozklady/przystanek/2469011-07201/
Bogucice Kościół,2469011-07202,250,50.26955,19.036736,https://rj.metropoliaztm.pl/rozklady/przystanek/2469011-07202/
Bogucice Markiefki,2469011-07401,251,50.26563,19.041237,https://rj.metropoliaztm.pl/rozklady/przystanek/2469011-07401/
Bogucice Skrzyżowanie,2469011-07902,252,50.26337,19.045197,https://rj.metropoliaztm.pl/rozklady/przystanek/2469011-07902/
Bogucice Wróblewskiego,2469011-08401,253,50.26678,19.042654,https://rj.metropoliaztm.pl/rozklady/przystanek/2469011-08401/
Boguszyce,2405075-01801,5925,50.43642,18.50846,https://rj.metropoliaztm.pl/rozklady/przystanek/2405075-01801/
Boguszyce,2405075-01802,5926,50.436497,18.508276,https://rj.metropoliaztm.pl/rozklady/przystanek/2405075-01802/
Bojków Auchan,2466011-20501,5571,50.25451,18.653103,https://rj.metropoliaztm.pl/rozklady/przystanek/2466011-20501/
Bojków Auchan,2466011-20502,5570,50.254265,18.65333,https://rj.metropoliaztm.pl/rozklady/przystanek/2466011-20502/
Bojków Dolny,2466011-21601,5523,50.254433,18.707823,https://rj.metropoliaztm.pl/rozklady/przystanek/2466011-21601/
Bojków Dolny,2466011-21602,5524,50.254543,18.70766,https://rj.metropoliaztm.pl/rozklady/przystanek/2466011-21602/
Bojków Dolny Skrzyżowanie,2466011-00801,254,50.254,18.697899,https://rj.metropoliaztm.pl/rozklady/przystanek/2466011-00801/
Bojków Dolny Skrzyżowanie,2466011-00802,255,50.25412,18.697458,https://rj.metropoliaztm.pl/rozklady/przystanek/2466011-00802/
Bojków Dolny Skrzyżowanie,2466011-00803,256,50.25393,18.698313,https://rj.metropoliaztm.pl/rozklady/przystanek/2466011-00803/
Bojków Dolny Skrzyżowanie,2466011-00804,257,50.253876,18.69842,https://rj.metropoliaztm.pl/rozklady/przystanek/2466011-00804/
Bojków Dolny Skrzyżowanie,2466011-00805,5526,50.25385,18.699097,https://rj.metropoliaztm.pl/rozklady/przystanek/2466011-00805/
Bojków Dolny Skrzyżowanie,2466011-00806,5525,50.25402,18.698957,https://rj.metropoliaztm.pl/rozklady/przystanek/2466011-00806/
Bojków I nż,2466011-00901,258,50.248653,18.663788,https://rj.metropoliaztm.pl/rozklady/przystanek/2466011-00901/
Bojków I nż,2466011-00902,259,50.248814,18.663992,https://rj.metropoliaztm.pl/rozklady/przystanek/2466011-00902/
Bojków Kościół,2466011-00201,260,50.251534,18.67967,https://rj.metropoliaztm.pl/rozklady/przystanek/2466011-00201/
Bojków Kościół,2466011-00202,261,50.251656,18.679466,https://rj.metropoliaztm.pl/rozklady/przystanek/2466011-00202/
Bojków Piekarnia,2466011-00301,262,50.249187,18.671139,https://rj.metropoliaztm.pl/rozklady/przystanek/2466011-00301/
Bojków Piekarnia,2466011-00302,263,50.249268,18.671257,https://rj.metropoliaztm.pl/rozklady/przystanek/2466011-00302/
Bojków Rybnicka nż,2466011-16501,629,50.25177,18.651379,https://rj.metropoliaztm.pl/rozklady/przystanek/2466011-16501/
Bojków Rybnicka nż,2466011-16502,630,50.251305,18.650927,https://rj.metropoliaztm.pl/rozklady/przystanek/2466011-16502/
Bojków Skrzyżowanie,2466011-00601,266,50.24788,18.658026,https://rj.metropoliaztm.pl/rozklady/przystanek/2466011-00601/
Bojków Skrzyżowanie,2466011-00602,267,50.248173,18.658094,https://rj.metropoliaztm.pl/rozklady/przystanek/2466011-00602/
Bojków Straż Pożarna,2466011-00401,268,50.253365,18.687996,https://rj.metropoliaztm.pl/rozklady/przystanek/2466011-00401/
Bojków Straż Pożarna,2466011-00402,269,50.253277,18.685696,https://rj.metropoliaztm.pl/rozklady/przystanek/2466011-00402/
Bojków Szyb nż,2466011-00701,270,50.25638,18.69821,https://rj.metropoliaztm.pl/rozklady/przystanek/2466011-00701/
Bojków Szyb nż,2466011-00702,271,50.256794,18.698124,https://rj.metropoliaztm.pl/rozklady/przystanek/2466011-00702/
Bojków Żeńców,2466011-00501,264,50.25376,18.692297,https://rj.metropoliaztm.pl/rozklady/przystanek/2466011-00501/
Bojków Żeńców,2466011-00502,265,50.2539,18.692202,https://rj.metropoliaztm.pl/rozklady/przystanek/2466011-00502/
Bojszowy Brzozowa nż,2414042-00719,6791,50.061054,19.066734,https://rj.metropoliaztm.pl/rozklady/przystanek/2414042-00719/
Bojszowy Brzozowa nż,2414042-00720,6790,50.061165,19.06682,https://rj.metropoliaztm.pl/rozklady/przystanek/2414042-00720/
Bojszowy Gaikowa,2414042-00313,6786,50.05793,19.100422,https://rj.metropoliaztm.pl/rozklady/przystanek/2414042-00313/
Bojszowy Gaikowa,2414042-00314,6764,50.057865,19.100712,https://rj.metropoliaztm.pl/rozklady/przystanek/2414042-00314/
Bojszowy Gospoda,2414042-00111,8059,50.05726,19.100918,https://rj.metropoliaztm.pl/rozklady/przystanek/2414042-00111/
Bojszowy Gospoda,2414042-00112,8060,50.05718,19.101002,https://rj.metropoliaztm.pl/rozklady/przystanek/2414042-00112/
Bojszowy Jedlińska,2414042-00421,6785,50.05476,19.107492,https://rj.metropoliaztm.pl/rozklady/przystanek/2414042-00421/
Bojszowy Jedlińska,2414042-00422,6763,50.054924,19.106892,https://rj.metropoliaztm.pl/rozklady/przystanek/2414042-00422/
Bojszowy Nowe Chrobok nż,2414042-01215,6811,50.040043,19.075972,https://rj.metropoliaztm.pl/rozklady/przystanek/2414042-01215/
Bojszowy Nowe Chrobok nż,2414042-01216,6812,50.03998,19.076433,https://rj.metropoliaztm.pl/rozklady/przystanek/2414042-01216/
Bojszowy Nowe Cichy Kącik nż,2414042-00821,6793,50.055725,19.055727,https://rj.metropoliaztm.pl/rozklady/przystanek/2414042-00821/
Bojszowy Nowe Cichy Kącik nż,2414042-00822,6792,50.05559,19.055233,https://rj.metropoliaztm.pl/rozklady/przystanek/2414042-00822/
Bojszowy Nowe Prosta,2414042-00911,6795,50.05314,19.050867,https://rj.metropoliaztm.pl/rozklady/przystanek/2414042-00911/
Bojszowy Nowe Prosta,2414042-00912,6767,50.053112,19.05092,https://rj.metropoliaztm.pl/rozklady/przystanek/2414042-00912/
Bojszowy Nowe Straż nż,2414042-01117,6813,50.044956,19.064009,https://rj.metropoliaztm.pl/rozklady/przystanek/2414042-01117/
Bojszowy Nowe Straż nż,2414042-01118,6814,50.0454,19.063742,https://rj.metropoliaztm.pl/rozklady/przystanek/2414042-01118/
Bojszowy Nowe Szkoła,2414042-01019,6794,50.051548,19.051554,https://rj.metropoliaztm.pl/rozklady/przystanek/2414042-01019/
Bojszowy Nowe Szkoła,2414042-01020,6768,50.05153,19.052069,https://rj.metropoliaztm.pl/rozklady/przystanek/2414042-01020/
Bojszowy Pancerniaków,2414042-00617,6788,50.06166,19.082838,https://rj.metropoliaztm.pl/rozklady/przystanek/2414042-00617/
Bojszowy Pancerniaków,2414042-00618,6789,50.061573,19.08257,https://rj.metropoliaztm.pl/rozklady/przystanek/2414042-00618/
Bojszowy Przedszkole,2414042-00215,6766,50.06083,19.09198,https://rj.metropoliaztm.pl/rozklady/przystanek/2414042-00215/
Bojszowy Przedszkole,2414042-00216,6787,50.06083,19.092312,https://rj.metropoliaztm.pl/rozklady/przystanek/2414042-00216/
Bojszowy RSP nż,2414042-00523,6783,50.052773,19.114178,https://rj.metropoliaztm.pl/rozklady/przystanek/2414042-00523/
Bojszowy RSP nż,2414042-00524,6784,50.052876,19.113234,https://rj.metropoliaztm.pl/rozklady/przystanek/2414042-00524/
Bojszów Skrzyżowanie,2405052-01003,6965,50.33915,18.477985,https://rj.metropoliaztm.pl/rozklady/przystanek/2405052-01003/
Bojszów Skrzyżowanie,2405052-01004,6964,50.339046,18.478329,https://rj.metropoliaztm.pl/rozklady/przystanek/2405052-01004/
Boniowice Skrzyżowanie,2413092-03101,277,50.39499,18.710398,https://rj.metropoliaztm.pl/rozklady/przystanek/2413092-03101/
Boniowice Skrzyżowanie,2413092-03102,276,50.394764,18.711416,https://rj.metropoliaztm.pl/rozklady/przystanek/2413092-03102/
Boniowice Skrzyżowanie,2413092-03103,279,50.394135,18.712769,https://rj.metropoliaztm.pl/rozklady/przystanek/2413092-03103/
Boniowice Skrzyżowanie,2413092-03104,278,50.394157,18.712908,https://rj.metropoliaztm.pl/rozklady/przystanek/2413092-03104/
Boniowice Szkoła,2413092-03001,3709,50.397823,18.71195,https://rj.metropoliaztm.pl/rozklady/przystanek/2413092-03001/
Borki Korczaka,2469011-08701,280,50.278526,19.089876,https://rj.metropoliaztm.pl/rozklady/przystanek/2469011-08701/
Borki Korczaka,2469011-08702,281,50.278286,19.089598,https://rj.metropoliaztm.pl/rozklady/przystanek/2469011-08702/
Borki Pętla,2469011-09001,282,50.27879,19.09507,https://rj.metropoliaztm.pl/rozklady/przystanek/2469011-09001/
Borowa Wieś Strażacka,2408021-06001,9612,50.225273,18.831064,https://rj.metropoliaztm.pl/rozklady/przystanek/2408021-06001/
Borowa Wieś Strażacka,2408021-06002,9613,50.225216,18.83084,https://rj.metropoliaztm.pl/rozklady/przystanek/2408021-06002/
Borowa Wieś Szkoła,2408021-05801,5006,50.223873,18.817482,https://rj.metropoliaztm.pl/rozklady/przystanek/2408021-05801/
Borowa Wieś Szkoła,2408021-05802,5007,50.224373,18.815529,https://rj.metropoliaztm.pl/rozklady/przystanek/2408021-05802/
Borowa Wieś Świetlica,2408021-05901,5008,50.228046,18.804832,https://rj.metropoliaztm.pl/rozklady/przystanek/2408021-05901/
Borowa Wieś Świetlica,2408021-05902,5009,50.227573,18.805777,https://rj.metropoliaztm.pl/rozklady/przystanek/2408021-05902/
Boruszowice Cmentarz,2413082-01401,5786,50.516815,18.773998,https://rj.metropoliaztm.pl/rozklady/przystanek/2413082-01401/
Boruszowice Cmentarz,2413082-01402,7887,50.516857,18.773912,https://rj.metropoliaztm.pl/rozklady/przystanek/2413082-01402/
Boruszowice Hanusek,2413082-01701,5779,50.505245,18.767357,https://rj.metropoliaztm.pl/rozklady/przystanek/2413082-01701/
Boruszowice Hanusek,2413082-01702,5780,50.504646,18.76755,https://rj.metropoliaztm.pl/rozklady/przystanek/2413082-01702/
Boruszowice Hanusek,2413082-01703,5778,50.505806,18.767303,https://rj.metropoliaztm.pl/rozklady/przystanek/2413082-01703/
Boruszowice Hanusek,2413082-01704,7161,50.5059,18.767368,https://rj.metropoliaztm.pl/rozklady/przystanek/2413082-01704/
Boruszowice Sklep,2413082-01001,5785,50.509068,18.774363,https://rj.metropoliaztm.pl/rozklady/przystanek/2413082-01001/
Boruszowice Sklep,2413082-01002,7160,50.509113,18.77433,https://rj.metropoliaztm.pl/rozklady/przystanek/2413082-01002/
Boruszowice Szkoła,2413082-01101,5784,50.511086,18.772871,https://rj.metropoliaztm.pl/rozklady/przystanek/2413082-01101/
Boruszowice Szkoła,2413082-01102,7888,50.511078,18.772776,https://rj.metropoliaztm.pl/rozklady/przystanek/2413082-01102/
Boruszowice Traugutta,2413082-01301,7889,50.513153,18.775265,https://rj.metropoliaztm.pl/rozklady/przystanek/2413082-01301/
Boruszowice Traugutta,2413082-01302,7890,50.513092,18.775179,https://rj.metropoliaztm.pl/rozklady/przystanek/2413082-01302/
Bończyk Gałczyńskiego,2470011-00101,1211,50.2405,19.106796,https://rj.metropoliaztm.pl/rozklady/przystanek/2470011-00101/
Bończyk Gałczyńskiego,2470011-00102,1212,50.24046,19.106646,https://rj.metropoliaztm.pl/rozklady/przystanek/2470011-00102/
Bończyk Jastruna nż,2470011-00201,4993,50.240253,19.11443,https://rj.metropoliaztm.pl/rozklady/przystanek/2470011-00201/
Bończyk Jastruna nż,2470011-00202,4994,50.240147,19.114119,https://rj.metropoliaztm.pl/rozklady/przystanek/2470011-00202/
Bończyk Kościół,2470011-00301,1217,50.242783,19.112364,https://rj.metropoliaztm.pl/rozklady/przystanek/2470011-00301/
Bończyk Kościół,2470011-00302,1218,50.24293,19.112053,https://rj.metropoliaztm.pl/rozklady/przystanek/2470011-00302/
Brada Las,2408011-02601,6578,50.154423,18.81173,https://rj.metropoliaztm.pl/rozklady/przystanek/2408011-02601/
Brada Las,2408011-02602,6599,50.15452,18.811218,https://rj.metropoliaztm.pl/rozklady/przystanek/2408011-02602/
Brada Orzeska,2408011-02401,6600,50.151337,18.825897,https://rj.metropoliaztm.pl/rozklady/przystanek/2408011-02401/
Brada Orzeska,2408011-02402,6576,50.151867,18.824743,https://rj.metropoliaztm.pl/rozklady/przystanek/2408011-02402/
Brada Przysiółki,2408011-02501,6577,50.153976,18.820679,https://rj.metropoliaztm.pl/rozklady/przystanek/2408011-02501/
Brada Przysiółki,2408011-02502,6598,50.153976,18.820927,https://rj.metropoliaztm.pl/rozklady/przystanek/2408011-02502/
Brudzowice Kapliczka,2401075-00101,4251,50.50707,19.190254,https://rj.metropoliaztm.pl/rozklady/przystanek/2401075-00101/
Brudzowice Kapliczka,2401075-00102,4252,50.507145,19.19034,https://rj.metropoliaztm.pl/rozklady/przystanek/2401075-00102/
Brudzowice Komorne I,2401075-00201,4255,50.503372,19.172424,https://rj.metropoliaztm.pl/rozklady/przystanek/2401075-00201/
Brudzowice Komorne I,2401075-00202,4256,50.503464,19.172356,https://rj.metropoliaztm.pl/rozklady/przystanek/2401075-00202/
Brudzowice Komorne II,2401075-00301,4253,50.50761,19.176403,https://rj.metropoliaztm.pl/rozklady/przystanek/2401075-00301/
Brudzowice Komorne II,2401075-00302,4254,50.50769,19.17629,https://rj.metropoliaztm.pl/rozklady/przystanek/2401075-00302/
Brudzowice Kościół,2401075-00401,4234,50.505466,19.205212,https://rj.metropoliaztm.pl/rozklady/przystanek/2401075-00401/
Brudzowice Kościół,2401075-00402,4235,50.505566,19.20523,https://rj.metropoliaztm.pl/rozklady/przystanek/2401075-00402/
Brudzowice Skrzyżowanie,2401075-00501,4246,50.506275,19.197918,https://rj.metropoliaztm.pl/rozklady/przystanek/2401075-00501/
Brudzowice Skrzyżowanie,2401075-00502,4247,50.506332,19.197784,https://rj.metropoliaztm.pl/rozklady/przystanek/2401075-00502/
Brudzowice Szkoła,2401075-00601,4257,50.499485,19.187134,https://rj.metropoliaztm.pl/rozklady/przystanek/2401075-00601/
Brudzowice Szkoła,2401075-00602,4258,50.49934,19.187605,https://rj.metropoliaztm.pl/rozklady/przystanek/2401075-00602/
Brynek Technikum,2413082-02201,5772,50.51475,18.734955,https://rj.metropoliaztm.pl/rozklady/przystanek/2413082-02201/
Brynek Technikum,2413082-02202,5771,50.515064,18.734344,https://rj.metropoliaztm.pl/rozklady/przystanek/2413082-02202/
Brynek Wiejska,2413082-02501,5767,50.521027,18.731855,https://rj.metropoliaztm.pl/rozklady/przystanek/2413082-02501/
Brynek Wiejska,2413082-02502,7895,50.52099,18.731768,https://rj.metropoliaztm.pl/rozklady/przystanek/2413082-02502/
Brynek Zamkowa,2413082-02401,5768,50.517445,18.733128,https://rj.metropoliaztm.pl/rozklady/przystanek/2413082-02401/
Brynek Zamkowa,2413082-02402,7894,50.5178,18.733421,https://rj.metropoliaztm.pl/rozklady/przystanek/2413082-02402/
Brynek nż,2413082-02601,5766,50.521843,18.723658,https://rj.metropoliaztm.pl/rozklady/przystanek/2413082-02601/
Brynek nż,2413082-02602,7893,50.522247,18.722908,https://rj.metropoliaztm.pl/rozklady/przystanek/2413082-02602/
Brynica,2413021-00901,3764,50.472244,18.994873,https://rj.metropoliaztm.pl/rozklady/przystanek/2413021-00901/
Brynica,2413021-00902,3765,50.472267,18.994701,https://rj.metropoliaztm.pl/rozklady/przystanek/2413021-00902/
Brynów Centrum Przesiadkowe,2469011-10501,292,50.227077,18.994572,https://rj.metropoliaztm.pl/rozklady/przystanek/2469011-10501/
Brynów Centrum Przesiadkowe,2469011-10501t,4558,50.227173,18.995249,https://rj.metropoliaztm.pl/rozklady/przystanek/2469011-10501t/
Brynów Centrum Przesiadkowe,2469011-10502,8119,50.227127,18.995409,https://rj.metropoliaztm.pl/rozklady/przystanek/2469011-10502/
Brynów Centrum Przesiadkowe,2469011-10502t,4559,50.226933,18.994507,https://rj.metropoliaztm.pl/rozklady/przystanek/2469011-10502t/
Brynów Centrum Przesiadkowe,2469011-10503t,8777,50.22644,18.995281,https://rj.metropoliaztm.pl/rozklady/przystanek/2469011-10503t/
Brynów Centrum Przesiadkowe,2469011-10504t,8778,50.226357,18.995304,https://rj.metropoliaztm.pl/rozklady/przystanek/2469011-10504t/
Brynów Centrum Przesiadkowe,2469011-10505,8120,50.226727,18.99514,https://rj.metropoliaztm.pl/rozklady/przystanek/2469011-10505/
Brynów Centrum Przesiadkowe,2469011-10505t,8106,50.226444,18.995323,https://rj.metropoliaztm.pl/rozklady/przystanek/2469011-10505t/
Brynów Drozdów,2469011-09401t,5171,50.23481,19.000086,https://rj.metropoliaztm.pl/rozklady/przystanek/2469011-09401t/
Brynów Drozdów,2469011-09402t,5172,50.234787,19.0002,https://rj.metropoliaztm.pl/rozklady/przystanek/2469011-09402t/
Brynów Dworska,2469011-09501,4554,50.232788,18.99556,https://rj.metropoliaztm.pl/rozklady/przystanek/2469011-09501/
Brynów Dworska,2469011-09502,4555,50.234146,18.995956,https://rj.metropoliaztm.pl/rozklady/przystanek/2469011-09502/
Brynów Dziewięciu z Wujka,2469011-09601,4885,50.240246,18.989717,https://rj.metropoliaztm.pl/rozklady/przystanek/2469011-09601/
Brynów Dziewięciu z Wujka,2469011-09602,4886,50.2397,18.989439,https://rj.metropoliaztm.pl/rozklady/przystanek/2469011-09602/
Brynów Gawronów,2469011-09701,10523,50.23752,19.004189,https://rj.metropoliaztm.pl/rozklady/przystanek/2469011-09701/
Brynów Gawronów,2469011-09701t,4933,50.23823,19.003,https://rj.metropoliaztm.pl/rozklady/przystanek/2469011-09701t/
Brynów Gawronów,2469011-09702,10524,50.23741,19.004086,https://rj.metropoliaztm.pl/rozklady/przystanek/2469011-09702/
Brynów Gawronów,2469011-09702t,4934,50.237537,19.002539,https://rj.metropoliaztm.pl/rozklady/przystanek/2469011-09702t/
Brynów Gawronów I,2469011-10001,717,50.236904,19.008718,https://rj.metropoliaztm.pl/rozklady/przystanek/2469011-10001/
Brynów Gawronów I,2469011-10002,718,50.236835,19.00727,https://rj.metropoliaztm.pl/rozklady/przystanek/2469011-10002/
Brynów Gawronów II,2469011-10101,715,50.23752,19.004189,https://rj.metropoliaztm.pl/rozklady/przystanek/2469011-10101/
Brynów Gawronów II,2469011-10102,716,50.2373,19.004438,https://rj.metropoliaztm.pl/rozklady/przystanek/2469011-10102/
Brynów Gawronów Kościół,2469011-10001,10525,50.236904,19.008718,https://rj.metropoliaztm.pl/rozklady/przystanek/2469011-10001/
Brynów Gawronów Kościół,2469011-10002,10526,50.236835,19.00727,https://rj.metropoliaztm.pl/rozklady/przystanek/2469011-10002/
Brynów Kopalnia Wujek,2469011-10201,10651,50.241398,18.987995,https://rj.metropoliaztm.pl/rozklady/przystanek/2469011-10201/
Brynów Kopalnia Wujek,2469011-10202,10652,50.24133,18.987276,https://rj.metropoliaztm.pl/rozklady/przystanek/2469011-10202/
Brynów Kopalnia Wujek,2469011-10202,295,50.24133,18.987276,https://rj.metropoliaztm.pl/rozklady/przystanek/2469011-10202/
Brynów Kościuszki,2469011-10401,291,50.227455,18.993177,https://rj.metropoliaztm.pl/rozklady/przystanek/2469011-10401/
Brynów Kościuszki,2469011-10403,293,50.226734,18.99204,https://rj.metropoliaztm.pl/rozklady/przystanek/2469011-10403/
Brynów Mikołowska Szkoła,2469011-36201,10510,50.245125,18.996546,https://rj.metropoliaztm.pl/rozklady/przystanek/2469011-36201/
Brynów Mikołowska Szkoła,2469011-36202,10511,50.244137,18.996738,https://rj.metropoliaztm.pl/rozklady/przystanek/2469011-36202/
Brynów Orkana,2469011-24001,289,50.231285,18.989418,https://rj.metropoliaztm.pl/rozklady/przystanek/2469011-24001/
Brynów Orkana,2469011-24002,290,50.231476,18.988495,https://rj.metropoliaztm.pl/rozklady/przystanek/2469011-24002/
Brynów Rzepakowa,2469011-09101,297,50.22295,18.993864,https://rj.metropoliaztm.pl/rozklady/przystanek/2469011-09101/
Brynów Rzepakowa,2469011-09102,296,50.222942,18.99409,https://rj.metropoliaztm.pl/rozklady/przystanek/2469011-09102/
Brynów Różyckiego,2469011-34401,300,50.238384,18.994379,https://rj.metropoliaztm.pl/rozklady/przystanek/2469011-34401/
Brynów Różyckiego,2469011-34402,301,50.23927,18.994593,https://rj.metropoliaztm.pl/rozklady/przystanek/2469011-34402/
Brynów Słowików,2469011-09801t,4556,50.231403,18.997206,https://rj.metropoliaztm.pl/rozklady/przystanek/2469011-09801t/
Brynów Słowików,2469011-09802t,4557,50.231453,18.997437,https://rj.metropoliaztm.pl/rozklady/przystanek/2469011-09802t/
Brynów W. Pola,2469011-36201,305,50.245125,18.996546,https://rj.metropoliaztm.pl/rozklady/przystanek/2469011-36201/
Brynów W. Pola,2469011-36202,306,50.244137,18.996738,https://rj.metropoliaztm.pl/rozklady/przystanek/2469011-36202/
Brynów W. Pola,2469011-40801,10575,50.242695,18.98349,https://rj.metropoliaztm.pl/rozklady/przystanek/2469011-40801/
Brynów W. Pola,2469011-40802,10574,50.242325,18.984465,https://rj.metropoliaztm.pl/rozklady/przystanek/2469011-40802/
Brynów W. Pola,2469011-40803,10576,50.242687,18.982374,https://rj.metropoliaztm.pl/rozklady/przystanek/2469011-40803/
Brynów W. Pola Tymczasowy,2469011-40832,9784,50.242325,18.984465,https://rj.metropoliaztm.pl/rozklady/przystanek/2469011-40832/
Brynów Zgrzebnioka,2469011-36501t,4552,50.240356,19.004955,https://rj.metropoliaztm.pl/rozklady/przystanek/2469011-36501t/
Brynów Zgrzebnioka,2469011-36502t,4553,50.240444,19.005058,https://rj.metropoliaztm.pl/rozklady/przystanek/2469011-36502t/
Brzezinka Centrum,2470011-00501,326,50.206284,19.158176,https://rj.metropoliaztm.pl/rozklady/przystanek/2470011-00501/
Brzezinka Centrum,2470011-00502,327,50.205605,19.15838,https://rj.metropoliaztm.pl/rozklady/przystanek/2470011-00502/
Brzezinka Cmentarna,2470011-00601,453,50.20477,19.170921,https://rj.metropoliaztm.pl/rozklady/przystanek/2470011-00601/
Brzezinka Cmentarna,2470011-00602,454,50.204563,19.169806,https://rj.metropoliaztm.pl/rozklady/przystanek/2470011-00602/
Brzezinka Droga do Łabęd,2466011-14501,666,50.3169,18.591043,https://rj.metropoliaztm.pl/rozklady/przystanek/2466011-14501/
Brzezinka Droga do Łabęd,2466011-14502,667,50.316517,18.591661,https://rj.metropoliaztm.pl/rozklady/przystanek/2466011-14502/
Brzezinka Dworcowa,2470011-00701,342,50.19856,19.159529,https://rj.metropoliaztm.pl/rozklady/przystanek/2470011-00701/
Brzezinka Dworcowa,2470011-00702,343,50.198277,19.159914,https://rj.metropoliaztm.pl/rozklady/przystanek/2470011-00702/
Brzezinka Fabryczna,2470011-00801,339,50.19751,19.149973,https://rj.metropoliaztm.pl/rozklady/przystanek/2470011-00801/
Brzezinka Fabryczna,2470011-00802,340,50.199764,19.14946,https://rj.metropoliaztm.pl/rozklady/przystanek/2470011-00802/
Brzezinka Gaudiego,2466011-14601,4763,50.316837,18.599407,https://rj.metropoliaztm.pl/rozklady/przystanek/2466011-14601/
Brzezinka Gaudiego,2466011-14602,4764,50.316284,18.598764,https://rj.metropoliaztm.pl/rozklady/przystanek/2466011-14602/
Brzezinka Gutenberga,2466011-20001,5237,50.325348,18.593542,https://rj.metropoliaztm.pl/rozklady/przystanek/2466011-20001/
Brzezinka Gutenberga,2466011-20002,5236,50.3247,18.593777,https://rj.metropoliaztm.pl/rozklady/przystanek/2466011-20002/
Brzezinka Kielecka,2466011-01001,332,50.324577,18.578459,https://rj.metropoliaztm.pl/rozklady/przystanek/2466011-01001/
Brzezinka Kielecka,2466011-01002,333,50.324795,18.577879,https://rj.metropoliaztm.pl/rozklady/przystanek/2466011-01002/
Brzezinka Laryska,2470011-00901,328,50.20281,19.148027,https://rj.metropoliaztm.pl/rozklady/przystanek/2470011-00901/
Brzezinka Laryska,2470011-00902,329,50.202644,19.14793,https://rj.metropoliaztm.pl/rozklady/przystanek/2470011-00902/
Brzezinka Laryska,2470011-00903,7131,50.202175,19.148327,https://rj.metropoliaztm.pl/rozklady/przystanek/2470011-00903/
Brzezinka Laryska,2470011-00904,5678,50.201775,19.14805,https://rj.metropoliaztm.pl/rozklady/przystanek/2470011-00904/
Brzezinka Leśna,2470011-01001,4995,50.20973,19.140158,https://rj.metropoliaztm.pl/rozklady/przystanek/2470011-01001/
Brzezinka Leśna,2470011-01002,4996,50.209587,19.140179,https://rj.metropoliaztm.pl/rozklady/przystanek/2470011-01002/
Brzezinka Lubelska nż,2466011-18801,322,50.329983,18.56905,https://rj.metropoliaztm.pl/rozklady/przystanek/2466011-18801/
Brzezinka Lubelska nż,2466011-18802,323,50.33001,18.568684,https://rj.metropoliaztm.pl/rozklady/przystanek/2466011-18802/
Brzezinka Nobla,2466011-19901,5239,50.33017,18.587019,https://rj.metropoliaztm.pl/rozklady/przystanek/2466011-19901/
Brzezinka Nowochrzanowska,2470011-01101,324,50.202293,19.159399,https://rj.metropoliaztm.pl/rozklady/przystanek/2470011-01101/
Brzezinka Nowochrzanowska,2470011-01102,325,50.202393,19.159346,https://rj.metropoliaztm.pl/rozklady/przystanek/2470011-01102/
Brzezinka Orzeszkowej,2470011-01201,330,50.20134,19.140676,https://rj.metropoliaztm.pl/rozklady/przystanek/2470011-01201/
Brzezinka Orzeszkowej,2470011-01202,331,50.20111,19.139883,https://rj.metropoliaztm.pl/rozklady/przystanek/2470011-01202/
Brzezinka Osiedle,2466011-01201,334,50.32044,18.583899,https://rj.metropoliaztm.pl/rozklady/przystanek/2466011-01201/
Brzezinka Osiedle,2466011-01202,335,50.319653,18.58468,https://rj.metropoliaztm.pl/rozklady/przystanek/2466011-01202/
Brzezinka Park Logistyczny,2466011-18901,6056,50.340153,18.554964,https://rj.metropoliaztm.pl/rozklady/przystanek/2466011-18901/
Brzezinka Przemyska,2466011-19101,5120,50.3207,18.595964,https://rj.metropoliaztm.pl/rozklady/przystanek/2466011-19101/
Brzezinka Pętla,2470011-01301,336,50.195667,19.151014,https://rj.metropoliaztm.pl/rozklady/przystanek/2470011-01301/
Brzezinka Reja,2470011-01401,337,50.20657,19.157328,https://rj.metropoliaztm.pl/rozklady/przystanek/2470011-01401/
Brzezinka Reja,2470011-01402,338,50.206463,19.15796,https://rj.metropoliaztm.pl/rozklady/przystanek/2470011-01402/
Brzezinka Topolowa,2470011-01601,1761,50.20789,19.147865,https://rj.metropoliaztm.pl/rozklady/przystanek/2470011-01601/
Brzezinka Topolowa,2470011-01602,1762,50.207855,19.1478,https://rj.metropoliaztm.pl/rozklady/przystanek/2470011-01602/
Brzezinka Wałbrzyska,2466011-01101,341,50.3283,18.572779,https://rj.metropoliaztm.pl/rozklady/przystanek/2466011-01101/
Brzezinka Wałbrzyska,2466011-01102,6057,50.32855,18.571848,https://rj.metropoliaztm.pl/rozklady/przystanek/2466011-01102/
Brzezinka Wyczółkowskiego,2466011-15101,4761,50.319485,18.59605,https://rj.metropoliaztm.pl/rozklady/przystanek/2466011-15101/
Brzezinka Wyczółkowskiego,2466011-15102,4762,50.317833,18.594677,https://rj.metropoliaztm.pl/rozklady/przystanek/2466011-15102/
Brzezinka Wyczółkowskiego Rondo nż,2466011-15201,4765,50.321327,18.598742,https://rj.metropoliaztm.pl/rozklady/przystanek/2466011-15201/
Brzezinka Wyczółkowskiego Rondo nż,2466011-15202,6053,50.322525,18.600899,https://rj.metropoliaztm.pl/rozklady/przystanek/2466011-15202/
Brzezinka Wysoki Brzeg Pętla,2470011-10701,5300,50.205296,19.176298,https://rj.metropoliaztm.pl/rozklady/przystanek/2470011-10701/
Brzeziny Śląskie,2471011-00101,348,50.34734,18.981129,https://rj.metropoliaztm.pl/rozklady/przystanek/2471011-00101/
Brzeziny Śląskie,2471011-00102,349,50.346245,18.981031,https://rj.metropoliaztm.pl/rozklady/przystanek/2471011-00102/
Brzeziny Śląskie Bednorza nż,2471011-00201,344,50.35355,18.981247,https://rj.metropoliaztm.pl/rozklady/przystanek/2471011-00201/
Brzeziny Śląskie Bednorza nż,2471011-00202,345,50.35443,18.981075,https://rj.metropoliaztm.pl/rozklady/przystanek/2471011-00202/
Brzeziny Śląskie Dom Kultury nż,2471011-00301,5248,50.346287,18.98542,https://rj.metropoliaztm.pl/rozklady/przystanek/2471011-00301/
Brzeziny Śląskie Dom Kultury nż,2471011-00302,5247,50.346355,18.985044,https://rj.metropoliaztm.pl/rozklady/przystanek/2471011-00302/
Brzeziny Śląskie EkoPark,2471011-00601,4644,50.34579,18.967384,https://rj.metropoliaztm.pl/rozklady/przystanek/2471011-00601/
Brzeziny Śląskie EkoPark,2471011-00602,4645,50.345764,18.9676,https://rj.metropoliaztm.pl/rozklady/przystanek/2471011-00602/
Brzeziny Śląskie Harcerska,2471011-00401,346,50.338173,18.974327,https://rj.metropoliaztm.pl/rozklady/przystanek/2471011-00401/
Brzeziny Śląskie Harcerska,2471011-00402,347,50.33832,18.974167,https://rj.metropoliaztm.pl/rozklady/przystanek/2471011-00402/
Brzeziny Śląskie Skrzyżowanie,2471011-00701,4647,50.345673,18.979776,https://rj.metropoliaztm.pl/rozklady/przystanek/2471011-00701/
Brzeziny Śląskie Skrzyżowanie,2471011-00702,4646,50.345623,18.97953,https://rj.metropoliaztm.pl/rozklady/przystanek/2471011-00702/
Brzeziny Śląskie Skrzyżowanie,2471011-00703,5615,50.34496,18.979862,https://rj.metropoliaztm.pl/rozklady/przystanek/2471011-00703/
Brzeziny Śląskie Skrzyżowanie,2471011-00704,5614,50.34525,18.98025,https://rj.metropoliaztm.pl/rozklady/przystanek/2471011-00704/
Brzeziny Śląskie Stare Osiedle,2471011-00801,4641,50.34028,18.964113,https://rj.metropoliaztm.pl/rozklady/przystanek/2471011-00801/
Brzeziny Śląskie Stare Osiedle,2471011-00804,4642,50.34019,18.96379,https://rj.metropoliaztm.pl/rozklady/przystanek/2471011-00804/
Brzeziny Śląskie Stare Osiedle,2471011-00805,6079,50.340897,18.965229,https://rj.metropoliaztm.pl/rozklady/przystanek/2471011-00805/
Brzozowica Osiedle,2401011-12001,5461,50.333958,19.149664,https://rj.metropoliaztm.pl/rozklady/przystanek/2401011-12001/
Brzozowica Osiedle,2401011-12002,5466,50.333958,19.149536,https://rj.metropoliaztm.pl/rozklady/przystanek/2401011-12002/
Brzozowica Park nż,2401011-11401,5458,50.332733,19.133726,https://rj.metropoliaztm.pl/rozklady/przystanek/2401011-11401/
Brzozowica Park nż,2401011-11402,5459,50.332855,19.134111,https://rj.metropoliaztm.pl/rozklady/przystanek/2401011-11402/
Brzozowica nż,2401011-11801,10036,50.3329,19.140362,https://rj.metropoliaztm.pl/rozklady/przystanek/2401011-11801/
Brzozowica nż,2401011-11802,10035,50.332977,19.140778,https://rj.metropoliaztm.pl/rozklady/przystanek/2401011-11802/
Brzozowice,2471011-01001,355,50.369854,18.97056,https://rj.metropoliaztm.pl/rozklady/przystanek/2471011-01001/
Brzozowice,2471011-01002,356,50.369576,18.971773,https://rj.metropoliaztm.pl/rozklady/przystanek/2471011-01002/
Brzozowice Reymonta nż,2471011-05401,5250,50.370716,18.964125,https://rj.metropoliaztm.pl/rozklady/przystanek/2471011-05401/
Brzozowice Reymonta nż,2471011-05402,5249,50.370552,18.964756,https://rj.metropoliaztm.pl/rozklady/przystanek/2471011-05402/
Brzęczkowice Kolejowa,2470011-03501,10291,50.224194,19.1485,https://rj.metropoliaztm.pl/rozklady/przystanek/2470011-03501/
Brzęczkowice Kolejowa,2470011-03502,10292,50.22412,19.148548,https://rj.metropoliaztm.pl/rozklady/przystanek/2470011-03502/
Brzęczkowice Kościół,2470011-01701,311,50.22258,19.153595,https://rj.metropoliaztm.pl/rozklady/przystanek/2470011-01701/
Brzęczkowice Kościół,2470011-01702,312,50.223404,19.15322,https://rj.metropoliaztm.pl/rozklady/przystanek/2470011-01702/
Brzęczkowice Mielęckiego,2470011-12801,9012,50.21395,19.155537,https://rj.metropoliaztm.pl/rozklady/przystanek/2470011-12801/
Brzęczkowice Mielęckiego,2470011-12802,9011,50.214428,19.156282,https://rj.metropoliaztm.pl/rozklady/przystanek/2470011-12802/
Brzęczkowice Ogródki Działkowe nż,2470011-10401,5295,50.21153,19.157082,https://rj.metropoliaztm.pl/rozklady/przystanek/2470011-10401/
Brzęczkowice Ogródki Działkowe nż,2470011-10402,5294,50.2117,19.1572,https://rj.metropoliaztm.pl/rozklady/przystanek/2470011-10402/
Brzęczkowice Osiedle Powstańców,2470011-01801,313,50.218346,19.157715,https://rj.metropoliaztm.pl/rozklady/przystanek/2470011-01801/
Brzęczkowice PKP,2470011-12901,9013,50.214348,19.148155,https://rj.metropoliaztm.pl/rozklady/przystanek/2470011-12901/
Brzęczkowice PKP,2470011-12902,9014,50.214287,19.14837,https://rj.metropoliaztm.pl/rozklady/przystanek/2470011-12902/
Brzęczkowice Rumiankowa,2470011-13001,9016,50.218857,19.148252,https://rj.metropoliaztm.pl/rozklady/przystanek/2470011-13001/
Brzęczkowice Rumiankowa,2470011-13002,9015,50.218994,19.148348,https://rj.metropoliaztm.pl/rozklady/przystanek/2470011-13002/
Brzęczkowice Szkoła,2470011-02101,309,50.21686,19.157135,https://rj.metropoliaztm.pl/rozklady/przystanek/2470011-02101/
Brzęczkowice Szkoła,2470011-02102,310,50.216312,19.15735,https://rj.metropoliaztm.pl/rozklady/przystanek/2470011-02102/
Brzęczkowice Słupna,2470011-02001,2888,50.22939,19.144583,https://rj.metropoliaztm.pl/rozklady/przystanek/2470011-02001/
Brzęczkowice Słupna,2470011-02002,2889,50.229458,19.144766,https://rj.metropoliaztm.pl/rozklady/przystanek/2470011-02002/
Brzęczkowice Żytnia,2470011-13101,9017,50.222065,19.146826,https://rj.metropoliaztm.pl/rozklady/przystanek/2470011-13101/
Brzęczkowice Żytnia,2470011-13102,9018,50.221928,19.14705,https://rj.metropoliaztm.pl/rozklady/przystanek/2470011-13102/
Brzękowice Chopina nż,2401062-00401,1063,50.40768,19.09446,https://rj.metropoliaztm.pl/rozklady/przystanek/2401062-00401/
Brzękowice Chopina nż,2401062-00402,1064,50.4078,19.09449,https://rj.metropoliaztm.pl/rozklady/przystanek/2401062-00402/
Brzękowice Dolne,2401062-00101,314,50.398384,19.11722,https://rj.metropoliaztm.pl/rozklady/przystanek/2401062-00101/
Brzękowice Dolne,2401062-00102,315,50.398525,19.11749,https://rj.metropoliaztm.pl/rozklady/przystanek/2401062-00102/
Brzękowice Górne,2401062-00301,1059,50.41099,19.10147,https://rj.metropoliaztm.pl/rozklady/przystanek/2401062-00301/
Brzękowice Górne,2401062-00302,1060,50.41088,19.10095,https://rj.metropoliaztm.pl/rozklady/przystanek/2401062-00302/
Brzękowice Remiza,2401062-00201,316,50.41393,19.1107,https://rj.metropoliaztm.pl/rozklady/przystanek/2401062-00201/
Brzękowice Remiza,2401062-00202,317,50.41401,19.11071,https://rj.metropoliaztm.pl/rozklady/przystanek/2401062-00202/
Brzękowice Wał 10 nż,2401062-06701,10366,50.401035,19.11245,https://rj.metropoliaztm.pl/rozklady/przystanek/2401062-06701/
Brzękowice Wał 10 nż,2401062-06702,10365,50.401073,19.112837,https://rj.metropoliaztm.pl/rozklady/przystanek/2401062-06702/
Bujaków Dworcowa,2408021-08801,3759,50.177982,18.787687,https://rj.metropoliaztm.pl/rozklady/przystanek/2408021-08801/
Bujaków Dworcowa,2408021-08802,3760,50.178043,18.787859,https://rj.metropoliaztm.pl/rozklady/przystanek/2408021-08802/
Bujaków Kościół,2408021-09001,4860,50.185455,18.798439,https://rj.metropoliaztm.pl/rozklady/przystanek/2408021-09001/
Bujaków Kościół,2408021-09002,4861,50.18536,18.798653,https://rj.metropoliaztm.pl/rozklady/przystanek/2408021-09002/
Bujaków Osiedle,2408021-09201,4999,50.197487,18.805937,https://rj.metropoliaztm.pl/rozklady/przystanek/2408021-09201/
Bujaków Osiedle,2408021-09202,4998,50.198288,18.80655,https://rj.metropoliaztm.pl/rozklady/przystanek/2408021-09202/
Bujaków Ośrodek Zdrowia,2408021-08901,4858,50.184097,18.794426,https://rj.metropoliaztm.pl/rozklady/przystanek/2408021-08901/
Bujaków Ośrodek Zdrowia,2408021-08902,4859,50.184032,18.794586,https://rj.metropoliaztm.pl/rozklady/przystanek/2408021-08902/
Bujaków Posesja,2408021-09101,6560,50.18811,18.809683,https://rj.metropoliaztm.pl/rozklady/przystanek/2408021-09101/
Bujaków Posesja,2408021-09102,6559,50.187897,18.808891,https://rj.metropoliaztm.pl/rozklady/przystanek/2408021-09102/
Burki,2401081-00101,368,50.267307,19.331327,https://rj.metropoliaztm.pl/rozklady/przystanek/2401081-00101/
Burki,2401081-00102,367,50.267246,19.331425,https://rj.metropoliaztm.pl/rozklady/przystanek/2401081-00102/
Burki Pętla,2401081-00201,366,50.26858,19.321669,https://rj.metropoliaztm.pl/rozklady/przystanek/2401081-00201/
Burowiec,2469011-02301,2963,50.26824,19.078964,https://rj.metropoliaztm.pl/rozklady/przystanek/2469011-02301/
Burowiec,2469011-02301t,2964,50.26828,19.079287,https://rj.metropoliaztm.pl/rozklady/przystanek/2469011-02301t/
Burowiec,2469011-02302,2965,50.26844,19.080006,https://rj.metropoliaztm.pl/rozklady/przystanek/2469011-02302/
Burowiec,2469011-02302t,2966,50.26837,19.079668,https://rj.metropoliaztm.pl/rozklady/przystanek/2469011-02302t/
Burowiec,2469011-02303,2967,50.26903,19.080284,https://rj.metropoliaztm.pl/rozklady/przystanek/2469011-02303/
Burowiec,2469011-02304,2968,50.26904,19.0805,https://rj.metropoliaztm.pl/rozklady/przystanek/2469011-02304/
Burowiec Szkoła,2469011-02401,542,50.273243,19.072538,https://rj.metropoliaztm.pl/rozklady/przystanek/2469011-02401/
Burowiec Szkoła,2469011-02402,543,50.27304,19.072989,https://rj.metropoliaztm.pl/rozklady/przystanek/2469011-02402/
Burowiec Szpital,2469011-02501,369,50.271053,19.085886,https://rj.metropoliaztm.pl/rozklady/przystanek/2469011-02501/
Burowiec Szpital,2469011-02502,370,50.271965,19.086496,https://rj.metropoliaztm.pl/rozklady/przystanek/2469011-02502/
Burowiec Wieża Ciśnień,2469011-40901,9960,50.27332,19.087742,https://rj.metropoliaztm.pl/rozklady/przystanek/2469011-40901/
Burowiec Wieża Ciśnień,2469011-40902,9961,50.27341,19.087484,https://rj.metropoliaztm.pl/rozklady/przystanek/2469011-40902/
Bykowina 11 Listopada,2472011-01101,371,50.27207,18.891699,https://rj.metropoliaztm.pl/rozklady/przystanek/2472011-01101/
Bykowina Grzegorzka,2472011-01301,374,50.26499,18.886839,https://rj.metropoliaztm.pl/rozklady/przystanek/2472011-01301/
Bykowina Gwarecka,2472011-01401,375,50.268,18.89489,https://rj.metropoliaztm.pl/rozklady/przystanek/2472011-01401/
Bykowina Gwarecka,2472011-01402,376,50.268135,18.895096,https://rj.metropoliaztm.pl/rozklady/przystanek/2472011-01402/
Bykowina Górnośląska,2472011-01201,372,50.266705,18.885326,https://rj.metropoliaztm.pl/rozklady/przystanek/2472011-01201/
Bykowina Górnośląska,2472011-01202,373,50.266636,18.884897,https://rj.metropoliaztm.pl/rozklady/przystanek/2472011-01202/
Bykowina Korfantego,2472011-01501,377,50.265957,18.898233,https://rj.metropoliaztm.pl/rozklady/przystanek/2472011-01501/
Bykowina Mijanka,2472011-01601t,4687,50.273785,18.89076,https://rj.metropoliaztm.pl/rozklady/przystanek/2472011-01601t/
Bykowina Mijanka,2472011-01602t,4688,50.273785,18.890802,https://rj.metropoliaztm.pl/rozklady/przystanek/2472011-01602t/
Bykowina Niedźwiedziniec,2472011-01701,379,50.27505,18.8957,https://rj.metropoliaztm.pl/rozklady/przystanek/2472011-01701/
Bykowina Niedźwiedziniec,2472011-01701t,380,50.27492,18.894762,https://rj.metropoliaztm.pl/rozklady/przystanek/2472011-01701t/
Bykowina Niedźwiedziniec,2472011-01702,381,50.275024,18.894794,https://rj.metropoliaztm.pl/rozklady/przystanek/2472011-01702/
Bykowina Niedźwiedziniec,2472011-01702t,382,50.27517,18.895609,https://rj.metropoliaztm.pl/rozklady/przystanek/2472011-01702t/
Bykowina Poloczka,2472011-01801,383,50.264126,18.892874,https://rj.metropoliaztm.pl/rozklady/przystanek/2472011-01801/
Bykowina Tesco,2472011-01901,4928,50.26524,18.900454,https://rj.metropoliaztm.pl/rozklady/przystanek/2472011-01901/
Bykowina Tesco,2472011-01902,5664,50.26377,18.899971,https://rj.metropoliaztm.pl/rozklady/przystanek/2472011-01902/
Bytkowska Centrum Targowe,2469011-15501,3242,50.291595,19.005558,https://rj.metropoliaztm.pl/rozklady/przystanek/2469011-15501/
Bytkowska Centrum Targowe,2469011-15502,3243,50.29052,19.005596,https://rj.metropoliaztm.pl/rozklady/przystanek/2469011-15502/
Bytków Centrum Kultury,2474011-00501,5149,50.302753,19.00625,https://rj.metropoliaztm.pl/rozklady/przystanek/2474011-00501/
Bytków Centrum Kultury,2474011-00502,5150,50.303158,19.005274,https://rj.metropoliaztm.pl/rozklady/przystanek/2474011-00502/
Bytków Kapicy,2474011-00701,390,50.30289,19.009754,https://rj.metropoliaztm.pl/rozklady/przystanek/2474011-00701/
Bytków Kapicy,2474011-00702,391,50.303623,19.00969,https://rj.metropoliaztm.pl/rozklady/przystanek/2474011-00702/
Bytków Kościół,2474011-00901,386,50.30498,19.00485,https://rj.metropoliaztm.pl/rozklady/przystanek/2474011-00901/
Bytków Kościół,2474011-00902,387,50.304127,19.004667,https://rj.metropoliaztm.pl/rozklady/przystanek/2474011-00902/
Bytków Osiedle Chemik,2474011-00601,388,50.2973,19.003817,https://rj.metropoliaztm.pl/rozklady/przystanek/2474011-00601/
Bytków Osiedle Chemik,2474011-00602,389,50.297188,19.00412,https://rj.metropoliaztm.pl/rozklady/przystanek/2474011-00602/
Bytków Osiedle Młodych,2474011-00801,392,50.306576,19.010365,https://rj.metropoliaztm.pl/rozklady/przystanek/2474011-00801/
Bytków Osiedle Młodych,2474011-00802,393,50.306576,19.010204,https://rj.metropoliaztm.pl/rozklady/przystanek/2474011-00802/
Bytków Watoły,2474011-01101,384,50.30769,19.00366,https://rj.metropoliaztm.pl/rozklady/przystanek/2474011-01101/
Bytków Watoły,2474011-01102,385,50.3078,19.003456,https://rj.metropoliaztm.pl/rozklady/przystanek/2474011-01102/
Bytom Alojzjanów,2462011-90531,10829,50.350967,18.933483,https://rj.metropoliaztm.pl/rozklady/przystanek/2462011-90531/
Bytom Arki Bożka,2462011-00601,4603,50.333935,18.939178,https://rj.metropoliaztm.pl/rozklady/przystanek/2462011-00601/
Bytom Arki Bożka,2462011-00601t,4604,50.333187,18.94007,https://rj.metropoliaztm.pl/rozklady/przystanek/2462011-00601t/
Bytom Arki Bożka,2462011-00602,4605,50.333553,18.93978,https://rj.metropoliaztm.pl/rozklady/przystanek/2462011-00602/
Bytom Arki Bożka,2462011-00602t,4606,50.332603,18.940456,https://rj.metropoliaztm.pl/rozklady/przystanek/2462011-00602t/
Bytom Batorego,2462011-00701t,4580,50.347427,18.91548,https://rj.metropoliaztm.pl/rozklady/przystanek/2462011-00701t/
Bytom Baza Transportowa nż,2462011-00801,155,50.36469,18.91746,https://rj.metropoliaztm.pl/rozklady/przystanek/2462011-00801/
Bytom Baza Transportowa nż,2462011-00802,156,50.36519,18.9169,https://rj.metropoliaztm.pl/rozklady/przystanek/2462011-00802/
Bytom Chrobrego,2462011-00901,434,50.35009,18.922539,https://rj.metropoliaztm.pl/rozklady/przystanek/2462011-00901/
Bytom Cmentarz Mater Dolorosa,2462011-14101t,6885,50.353863,18.920668,https://rj.metropoliaztm.pl/rozklady/przystanek/2462011-14101t/
Bytom Cmentarz Mater Dolorosa,2462011-14102t,6884,50.35396,18.9207,https://rj.metropoliaztm.pl/rozklady/przystanek/2462011-14102t/
Bytom Didura,2462011-15601,9043,50.347588,18.903688,https://rj.metropoliaztm.pl/rozklady/przystanek/2462011-15601/
Bytom Didura,2462011-15602,9044,50.347725,18.903484,https://rj.metropoliaztm.pl/rozklady/przystanek/2462011-15602/
Bytom Dom Pogrzebowy,2462011-01001,2511,50.359932,18.920795,https://rj.metropoliaztm.pl/rozklady/przystanek/2462011-01001/
Bytom Dom Pogrzebowy,2462011-01002,2512,50.359787,18.920645,https://rj.metropoliaztm.pl/rozklady/przystanek/2462011-01002/
Bytom Dworska nż,2462011-01101,1112,50.368126,18.914026,https://rj.metropoliaztm.pl/rozklady/przystanek/2462011-01101/
Bytom Dworska nż,2462011-01102,1113,50.368095,18.913778,https://rj.metropoliaztm.pl/rozklady/przystanek/2462011-01102/
Bytom Dworzec,2462011-01201,3553,50.34368,18.913397,https://rj.metropoliaztm.pl/rozklady/przystanek/2462011-01201/
Bytom Dworzec,2462011-01202,3560,50.34377,18.913216,https://rj.metropoliaztm.pl/rozklady/przystanek/2462011-01202/
Bytom Dworzec,2462011-01203,3561,50.343864,18.913023,https://rj.metropoliaztm.pl/rozklady/przystanek/2462011-01203/
Bytom Dworzec,2462011-01204,3562,50.343735,18.913506,https://rj.metropoliaztm.pl/rozklady/przystanek/2462011-01204/
Bytom Dworzec,2462011-01205,3563,50.34383,18.913258,https://rj.metropoliaztm.pl/rozklady/przystanek/2462011-01205/
Bytom Dworzec,2462011-01206,3564,50.343925,18.913023,https://rj.metropoliaztm.pl/rozklady/przystanek/2462011-01206/
Bytom Dworzec,2462011-01207,3565,50.34376,18.913612,https://rj.metropoliaztm.pl/rozklady/przystanek/2462011-01207/
Bytom Dworzec,2462011-01208,3566,50.34383,18.913462,https://rj.metropoliaztm.pl/rozklady/przystanek/2462011-01208/
Bytom Dworzec,2462011-01209,3567,50.343918,18.913248,https://rj.metropoliaztm.pl/rozklady/przystanek/2462011-01209/
Bytom Dworzec,2462011-01210,3554,50.34401,18.913044,https://rj.metropoliaztm.pl/rozklady/przystanek/2462011-01210/
Bytom Dworzec,2462011-01211,3555,50.34382,18.91372,https://rj.metropoliaztm.pl/rozklady/przystanek/2462011-01211/
Bytom Dworzec,2462011-01212,3556,50.343884,18.913568,https://rj.metropoliaztm.pl/rozklady/przystanek/2462011-01212/
Bytom Dworzec,2462011-01213,3557,50.343967,18.913376,https://rj.metropoliaztm.pl/rozklady/przystanek/2462011-01213/
Bytom Dworzec,2462011-01214,3558,50.34407,18.913162,https://rj.metropoliaztm.pl/rozklady/przystanek/2462011-01214/
Bytom Dworzec,2462011-01215,3559,50.344204,18.912497,https://rj.metropoliaztm.pl/rozklady/przystanek/2462011-01215/
Bytom Fałata,2462011-01301,2816,50.3562,18.90857,https://rj.metropoliaztm.pl/rozklady/przystanek/2462011-01301/
Bytom Fałata,2462011-01302,2817,50.35659,18.908087,https://rj.metropoliaztm.pl/rozklady/przystanek/2462011-01302/
Bytom Fałata,2462011-01303,9021,50.356136,18.90933,https://rj.metropoliaztm.pl/rozklady/przystanek/2462011-01303/
Bytom Gallusa,2462011-01401,712,50.355053,18.92992,https://rj.metropoliaztm.pl/rozklady/przystanek/2462011-01401/
Bytom Grottgera,2462011-01601t,4577,50.356186,18.921637,https://rj.metropoliaztm.pl/rozklady/przystanek/2462011-01601t/
Bytom Grottgera,2462011-01602t,4578,50.356274,18.921648,https://rj.metropoliaztm.pl/rozklady/przystanek/2462011-01602t/
Bytom Gwarecka nż,2462011-01701,3601,50.35753,18.93006,https://rj.metropoliaztm.pl/rozklady/przystanek/2462011-01701/
Bytom Głęboka,2462011-13501t,6875,50.344505,18.93006,https://rj.metropoliaztm.pl/rozklady/przystanek/2462011-13501t/
Bytom Głęboka,2462011-13502t,6874,50.344555,18.930227,https://rj.metropoliaztm.pl/rozklady/przystanek/2462011-13502t/
Bytom Jagiellońska,2462011-01801t,4313,50.345192,18.918676,https://rj.metropoliaztm.pl/rozklady/przystanek/2462011-01801t/
Bytom Jagiellońska,2462011-01802t,4314,50.344322,18.918076,https://rj.metropoliaztm.pl/rozklady/przystanek/2462011-01802t/
Bytom Kochanowskiego,2462011-15701,8948,50.347458,18.933857,https://rj.metropoliaztm.pl/rozklady/przystanek/2462011-15701/
Bytom Kościół św. Trójcy,2462011-02001t,4574,50.34858,18.918236,https://rj.metropoliaztm.pl/rozklady/przystanek/2462011-02001t/
Bytom Krakowska,2462011-02101,3603,50.345528,18.928408,https://rj.metropoliaztm.pl/rozklady/przystanek/2462011-02101/
Bytom Kraszewskiego,2462011-16001,8567,50.355026,18.918423,https://rj.metropoliaztm.pl/rozklady/przystanek/2462011-16001/
Bytom Kraszewskiego,2462011-16002,8950,50.35473,18.918472,https://rj.metropoliaztm.pl/rozklady/przystanek/2462011-16002/
Bytom Kruszcowa,2462011-02201,1505,50.35994,18.93185,https://rj.metropoliaztm.pl/rozklady/przystanek/2462011-02201/
Bytom Kąpielisko,2462011-01901t,4620,50.34999,18.904064,https://rj.metropoliaztm.pl/rozklady/przystanek/2462011-01901t/
Bytom Kąpielisko,2462011-01902t,4621,50.349976,18.903582,https://rj.metropoliaztm.pl/rozklady/przystanek/2462011-01902t/
Bytom Legionów nż,2462011-02301,3810,50.354263,18.908838,https://rj.metropoliaztm.pl/rozklady/przystanek/2462011-02301/
Bytom Legionów nż,2462011-02302,3811,50.354202,18.908945,https://rj.metropoliaztm.pl/rozklady/przystanek/2462011-02302/
Bytom Lodowisko,2462011-14901,8945,50.349243,18.892597,https://rj.metropoliaztm.pl/rozklady/przystanek/2462011-14901/
Bytom Lodowisko,2462011-14902,8946,50.348858,18.895283,https://rj.metropoliaztm.pl/rozklady/przystanek/2462011-14902/
Bytom Matejki,2462011-02601,3602,50.348152,18.92757,https://rj.metropoliaztm.pl/rozklady/przystanek/2462011-02601/
Bytom Miarki,2462011-15201,8952,50.343597,18.926262,https://rj.metropoliaztm.pl/rozklady/przystanek/2462011-15201/
Bytom Mickiewicza,2462011-02701,1683,50.357624,18.928923,https://rj.metropoliaztm.pl/rozklady/przystanek/2462011-02701/
Bytom Moniuszki,2462011-02801t,4572,50.34526,18.916767,https://rj.metropoliaztm.pl/rozklady/przystanek/2462011-02801t/
Bytom Nawrota,2462011-02901,1842,50.351704,18.91886,https://rj.metropoliaztm.pl/rozklady/przystanek/2462011-02901/
Bytom Odrzańska nż,2462011-03001,1935,50.36118,18.903822,https://rj.metropoliaztm.pl/rozklady/przystanek/2462011-03001/
Bytom Odrzańska nż,2462011-03001t,1936,50.36314,18.899578,https://rj.metropoliaztm.pl/rozklady/przystanek/2462011-03001t/
Bytom Odrzańska nż,2462011-03002,1937,50.362957,18.901709,https://rj.metropoliaztm.pl/rozklady/przystanek/2462011-03002/
Bytom Odrzańska nż,2462011-03002t,1938,50.36291,18.899729,https://rj.metropoliaztm.pl/rozklady/przystanek/2462011-03002t/
Bytom Olimpijska,2462011-03101t,3812,50.355526,18.906242,https://rj.metropoliaztm.pl/rozklady/przystanek/2462011-03101t/
Bytom Olimpijska,2462011-03102t,3813,50.355473,18.906263,https://rj.metropoliaztm.pl/rozklady/przystanek/2462011-03102t/
Bytom Opera,2462011-15101,8951,50.34342,18.921194,https://rj.metropoliaztm.pl/rozklady/przystanek/2462011-15101/
Bytom Park Mickiewicza,2462011-03201t,4601,50.33652,18.938042,https://rj.metropoliaztm.pl/rozklady/przystanek/2462011-03201t/
Bytom Park Mickiewicza,2462011-03202t,4602,50.336224,18.938272,https://rj.metropoliaztm.pl/rozklady/przystanek/2462011-03202t/
Bytom Piłkarska nż,2462011-03301t,4626,50.358704,18.903238,https://rj.metropoliaztm.pl/rozklady/przystanek/2462011-03301t/
Bytom Piłkarska nż,2462011-03302t,4627,50.358723,18.903173,https://rj.metropoliaztm.pl/rozklady/przystanek/2462011-03302t/
Bytom Piłsudskiego,2462011-03401,2280,50.34868,18.929798,https://rj.metropoliaztm.pl/rozklady/przystanek/2462011-03401/
Bytom Plac Akademicki nż,2462011-03501,2282,50.351616,18.926626,https://rj.metropoliaztm.pl/rozklady/przystanek/2462011-03501/
Bytom Plac Rodła,2462011-03601,7307,50.355976,18.911682,https://rj.metropoliaztm.pl/rozklady/przystanek/2462011-03601/
Bytom Plac Sikorskiego,2462011-03701t,7281,50.344704,18.92034,https://rj.metropoliaztm.pl/rozklady/przystanek/2462011-03701t/
Bytom Plac Sikorskiego,2462011-03702t,4311,50.34541,18.920908,https://rj.metropoliaztm.pl/rozklady/przystanek/2462011-03702t/
Bytom Plac Sikorskiego,2462011-03703t,4312,50.345585,18.92129,https://rj.metropoliaztm.pl/rozklady/przystanek/2462011-03703t/
Bytom Plac Sikorskiego,2462011-03704t,7282,50.34515,18.920624,https://rj.metropoliaztm.pl/rozklady/przystanek/2462011-03704t/
Bytom Plac Sikorskiego,2462011-03705t,7283,50.345207,18.920639,https://rj.metropoliaztm.pl/rozklady/przystanek/2462011-03705t/
Bytom Plac Sobieskiego,2462011-03801,2299,50.34898,18.924706,https://rj.metropoliaztm.pl/rozklady/przystanek/2462011-03801/
Bytom Pogoda,2462011-03901,2369,50.345654,18.93036,https://rj.metropoliaztm.pl/rozklady/przystanek/2462011-03901/
Bytom Powstańców Warszawskich,2462011-04101,2412,50.344467,18.914536,https://rj.metropoliaztm.pl/rozklady/przystanek/2462011-04101/
Bytom Powstańców Śląskich,2462011-04601t,4579,50.35843,18.922052,https://rj.metropoliaztm.pl/rozklady/przystanek/2462011-04601t/
Bytom Prusa,2462011-04201,2423,50.3518,18.930742,https://rj.metropoliaztm.pl/rozklady/przystanek/2462011-04201/
Bytom Prusa,2462011-04202,2424,50.351765,18.930548,https://rj.metropoliaztm.pl/rozklady/przystanek/2462011-04202/
Bytom Pułaskiego,2462011-13601,9041,50.348297,18.899326,https://rj.metropoliaztm.pl/rozklady/przystanek/2462011-13601/
Bytom Pułaskiego,2462011-13602,9042,50.348167,18.900166,https://rj.metropoliaztm.pl/rozklady/przystanek/2462011-13602/
Bytom Sandomierska,2462011-04301,2614,50.356365,18.930216,https://rj.metropoliaztm.pl/rozklady/przystanek/2462011-04301/
Bytom Smolenia,2462011-04501,10661,50.35239,18.919907,https://rj.metropoliaztm.pl/rozklady/przystanek/2462011-04501/
Bytom Smolenia,2462011-04501t,4575,50.351933,18.9196,https://rj.metropoliaztm.pl/rozklady/przystanek/2462011-04501t/
Bytom Smolenia,2462011-04502,10662,50.35192,18.919527,https://rj.metropoliaztm.pl/rozklady/przystanek/2462011-04502/
Bytom Smolenia,2462011-04502t,4576,50.352406,18.919878,https://rj.metropoliaztm.pl/rozklady/przystanek/2462011-04502t/
Bytom Stadion,2462011-04701,5164,50.356308,18.90007,https://rj.metropoliaztm.pl/rozklady/przystanek/2462011-04701/
Bytom Stadion,2462011-04702,5165,50.35605,18.900974,https://rj.metropoliaztm.pl/rozklady/przystanek/2462011-04702/
Bytom Strzelców Bytomskich,2462011-04801,2814,50.35057,18.91406,https://rj.metropoliaztm.pl/rozklady/przystanek/2462011-04801/
Bytom Strzelców Bytomskich,2462011-04802,2815,50.350277,18.914072,https://rj.metropoliaztm.pl/rozklady/przystanek/2462011-04802/
Bytom Szkoła Medyczna,2462011-04001,8876,50.351562,18.891108,https://rj.metropoliaztm.pl/rozklady/przystanek/2462011-04001/
Bytom Szkoła Medyczna,2462011-04001t,4624,50.351513,18.89055,https://rj.metropoliaztm.pl/rozklady/przystanek/2462011-04001t/
Bytom Szkoła Medyczna,2462011-04002t,4625,50.351448,18.890717,https://rj.metropoliaztm.pl/rozklady/przystanek/2462011-04002t/
Bytom Szkoła Medyczna [tech],2462011-05301t,5134,50.35217,18.888569,https://rj.metropoliaztm.pl/rozklady/przystanek/2462011-05301t/
Bytom Szpital nr 1,2462011-04901,432,50.352566,18.923752,https://rj.metropoliaztm.pl/rozklady/przystanek/2462011-04901/
Bytom Szpital nr 1,2462011-04902,433,50.352287,18.923525,https://rj.metropoliaztm.pl/rozklady/przystanek/2462011-04902/
Bytom Szpital nr 2,2462011-14301,9040,50.347874,18.909838,https://rj.metropoliaztm.pl/rozklady/przystanek/2462011-14301/
Bytom Sąd,2462011-04401t,4573,50.3474,18.917652,https://rj.metropoliaztm.pl/rozklady/przystanek/2462011-04401t/
Bytom Teatr Tańca-Rozbark,2462011-10201,2562,50.341614,18.93213,https://rj.metropoliaztm.pl/rozklady/przystanek/2462011-10201/
Bytom Teatr Tańca-Rozbark,2462011-10201t,2563,50.34195,18.932158,https://rj.metropoliaztm.pl/rozklady/przystanek/2462011-10201t/
Bytom Teatr Tańca-Rozbark,2462011-10202,2564,50.341763,18.932356,https://rj.metropoliaztm.pl/rozklady/przystanek/2462011-10202/
Bytom Teatr Tańca-Rozbark,2462011-10202t,2565,50.341988,18.93234,https://rj.metropoliaztm.pl/rozklady/przystanek/2462011-10202t/
Bytom Urząd Miasta,2462011-05001t,4581,50.350845,18.912046,https://rj.metropoliaztm.pl/rozklady/przystanek/2462011-05001t/
Bytom Urząd Miasta,2462011-05002t,4582,50.35076,18.9121,https://rj.metropoliaztm.pl/rozklady/przystanek/2462011-05002t/
Bytom Urząd Pracy,2462011-14201t,6871,50.339333,18.918795,https://rj.metropoliaztm.pl/rozklady/przystanek/2462011-14201t/
Bytom Urząd Pracy,2462011-14202t,6870,50.339375,18.91888,https://rj.metropoliaztm.pl/rozklady/przystanek/2462011-14202t/
Bytom Wallisa,2462011-05101t,4622,50.350433,18.900051,https://rj.metropoliaztm.pl/rozklady/przystanek/2462011-05101t/
Bytom Wallisa,2462011-05102t,4623,50.35045,18.899366,https://rj.metropoliaztm.pl/rozklady/przystanek/2462011-05102t/
Bytom Wesoła,2462011-15301,8653,50.35598,18.932291,https://rj.metropoliaztm.pl/rozklady/przystanek/2462011-15301/
Bytom Wrocławska,2462011-05201,3324,50.348904,18.912046,https://rj.metropoliaztm.pl/rozklady/przystanek/2462011-05201/
Bytom Wrocławska,2462011-05201t,3325,50.34931,18.91033,https://rj.metropoliaztm.pl/rozklady/przystanek/2462011-05201t/
Bytom Wrocławska,2462011-05202,3326,50.348827,18.911724,https://rj.metropoliaztm.pl/rozklady/przystanek/2462011-05202/
Bytom Wrocławska,2462011-05202t,3327,50.349262,18.909653,https://rj.metropoliaztm.pl/rozklady/przystanek/2462011-05202t/
Bytom Zajezdnia,2462011-05401,662,50.35888,18.9333,https://rj.metropoliaztm.pl/rozklady/przystanek/2462011-05401/
Bytom Zajezdnia,2462011-05402,663,50.359337,18.933418,https://rj.metropoliaztm.pl/rozklady/przystanek/2462011-05402/
Bytom Zamłynie,2462011-05501,3451,50.342228,18.91614,https://rj.metropoliaztm.pl/rozklady/przystanek/2462011-05501/
Bytom Zamłynie,2462011-05501t,3452,50.34241,18.914621,https://rj.metropoliaztm.pl/rozklady/przystanek/2462011-05501t/
Bytom Zamłynie,2462011-05502t,3453,50.342304,18.914236,https://rj.metropoliaztm.pl/rozklady/przystanek/2462011-05502t/
Bytom Zamłynie,2462011-05532,9499,50.34221,18.914331,https://rj.metropoliaztm.pl/rozklady/przystanek/2462011-05532/
Bytom Łagiewnicka,2462011-02401,4583,50.34105,18.917574,https://rj.metropoliaztm.pl/rozklady/przystanek/2462011-02401/
Bytom Łagiewnicka,2462011-02401t,4584,50.341595,18.917046,https://rj.metropoliaztm.pl/rozklady/przystanek/2462011-02401t/
Bytom Łagiewnicka,2462011-02402t,4585,50.341618,18.917078,https://rj.metropoliaztm.pl/rozklady/przystanek/2462011-02402t/
Bytom Łużycka,2462011-02501,3127,50.351025,18.894178,https://rj.metropoliaztm.pl/rozklady/przystanek/2462011-02501/
Bytom Łużycka,2462011-02501t,3128,50.350964,18.895609,https://rj.metropoliaztm.pl/rozklady/przystanek/2462011-02501t/
Bytom Łużycka,2462011-02502,3129,50.350826,18.894049,https://rj.metropoliaztm.pl/rozklady/przystanek/2462011-02502/
Bytom Łużycka,2462011-02502t,3130,50.35099,18.894848,https://rj.metropoliaztm.pl/rozklady/przystanek/2462011-02502t/
Bytom Łużycka,2462011-02503,3131,50.35124,18.895454,https://rj.metropoliaztm.pl/rozklady/przystanek/2462011-02503/
Będzin 11 Listopada,2401011-00101,94,50.320587,19.129326,https://rj.metropoliaztm.pl/rozklady/przystanek/2401011-00101/
Będzin 11 Listopada,2401011-00102,95,50.319786,19.12996,https://rj.metropoliaztm.pl/rozklady/przystanek/2401011-00102/
Będzin Aleja Kołłątaja,2401011-00201,101,50.325253,19.137844,https://rj.metropoliaztm.pl/rozklady/przystanek/2401011-00201/
Będzin Aleja Kołłątaja,2401011-00202,102,50.325558,19.136515,https://rj.metropoliaztm.pl/rozklady/przystanek/2401011-00202/
Będzin Brata Alberta nż,2401011-00301,676,50.318928,19.137787,https://rj.metropoliaztm.pl/rozklady/przystanek/2401011-00301/
Będzin Brata Alberta nż,2401011-00302,677,50.31877,19.137476,https://rj.metropoliaztm.pl/rozklady/przystanek/2401011-00302/
Będzin Brata Alberta nż,2401011-00332,9757,50.318954,19.135948,https://rj.metropoliaztm.pl/rozklady/przystanek/2401011-00332/
Będzin Brzozowicka nż,2401011-00401,357,50.33301,19.13132,https://rj.metropoliaztm.pl/rozklady/przystanek/2401011-00401/
Będzin Brzozowicka nż,2401011-00402,358,50.33301,19.131128,https://rj.metropoliaztm.pl/rozklady/przystanek/2401011-00402/
Będzin Cieszkowskiego,2401011-12401,5357,50.31031,19.149734,https://rj.metropoliaztm.pl/rozklady/przystanek/2401011-12401/
Będzin Cieszkowskiego,2401011-12402,5356,50.310127,19.150942,https://rj.metropoliaztm.pl/rozklady/przystanek/2401011-12402/
Będzin Cmentarz Komunalny,2401011-00501,3659,50.304844,19.137486,https://rj.metropoliaztm.pl/rozklady/przystanek/2401011-00501/
Będzin Cmentarz Komunalny,2401011-00501t,3660,50.304813,19.137619,https://rj.metropoliaztm.pl/rozklady/przystanek/2401011-00501t/
Będzin Cmentarz Komunalny,2401011-00502,3661,50.304802,19.137835,https://rj.metropoliaztm.pl/rozklady/przystanek/2401011-00502/
Będzin Cmentarz Komunalny,2401011-00502t,3662,50.304817,19.137716,https://rj.metropoliaztm.pl/rozklady/przystanek/2401011-00502t/
Będzin Czeladzka,2401011-00601t,4380,50.32568,19.122492,https://rj.metropoliaztm.pl/rozklady/przystanek/2401011-00601t/
Będzin Czeladzka,2401011-00602t,4381,50.32538,19.120678,https://rj.metropoliaztm.pl/rozklady/przystanek/2401011-00602t/
Będzin Czeladzka,2401011-00631,8807,50.325256,19.120249,https://rj.metropoliaztm.pl/rozklady/przystanek/2401011-00631/
Będzin Czeladzka,2401011-00632,8806,50.32492,19.11933,https://rj.metropoliaztm.pl/rozklady/przystanek/2401011-00632/
Będzin Dworzec,2401011-00701,10020,50.318336,19.133121,https://rj.metropoliaztm.pl/rozklady/przystanek/2401011-00701/
Będzin Dworzec,2401011-00702,10021,50.318466,19.133379,https://rj.metropoliaztm.pl/rozklady/przystanek/2401011-00702/
Będzin Dworzec,2401011-00703,10040,50.319313,19.13436,https://rj.metropoliaztm.pl/rozklady/przystanek/2401011-00703/
Będzin Gospodarcza Brama Śl.,2401011-12301,10037,50.314922,19.154535,https://rj.metropoliaztm.pl/rozklady/przystanek/2401011-12301/
Będzin Gospodarcza Brama Śl.,2401011-12302,10038,50.31487,19.153559,https://rj.metropoliaztm.pl/rozklady/przystanek/2401011-12302/
Będzin Hala Targowa,2401011-00901,4883,50.32207,19.131517,https://rj.metropoliaztm.pl/rozklady/przystanek/2401011-00901/
Będzin Johnson Electric,2401011-12201,5554,50.31306,19.15149,https://rj.metropoliaztm.pl/rozklady/przystanek/2401011-12201/
Będzin Johnson Electric,2401011-12202,5557,50.312614,19.151232,https://rj.metropoliaztm.pl/rozklady/przystanek/2401011-12202/
Będzin Kościuszki,2401011-01101,1321,50.315346,19.13557,https://rj.metropoliaztm.pl/rozklady/przystanek/2401011-01101/
Będzin Kościuszki,2401011-01102,1322,50.315086,19.13573,https://rj.metropoliaztm.pl/rozklady/przystanek/2401011-01102/
Będzin Kościuszki,2401011-01103,1323,50.315422,19.13573,https://rj.metropoliaztm.pl/rozklady/przystanek/2401011-01103/
Będzin Kościuszki,2401011-01104,1324,50.31508,19.135914,https://rj.metropoliaztm.pl/rozklady/przystanek/2401011-01104/
Będzin Kościuszki,2401011-01105,1325,50.31545,19.13586,https://rj.metropoliaztm.pl/rozklady/przystanek/2401011-01105/
Będzin Kościuszki,2401011-01106,1326,50.315136,19.136036,https://rj.metropoliaztm.pl/rozklady/przystanek/2401011-01106/
Będzin Kościuszki,2401011-01107,1327,50.314854,19.136192,https://rj.metropoliaztm.pl/rozklady/przystanek/2401011-01107/
Będzin Kościuszki,2401011-01108,1328,50.314262,19.135849,https://rj.metropoliaztm.pl/rozklady/przystanek/2401011-01108/
Będzin Kościuszki,2401011-01109,8298,50.31406,19.136526,https://rj.metropoliaztm.pl/rozklady/przystanek/2401011-01109/
Będzin Krasickiego,2401011-01201,1489,50.31421,19.129036,https://rj.metropoliaztm.pl/rozklady/przystanek/2401011-01201/
Będzin Krasickiego,2401011-01201t,1490,50.314407,19.127777,https://rj.metropoliaztm.pl/rozklady/przystanek/2401011-01201t/
Będzin Krasickiego,2401011-01202,1491,50.31422,19.129187,https://rj.metropoliaztm.pl/rozklady/przystanek/2401011-01202/
Będzin Krasickiego,2401011-01202t,1492,50.314564,19.127771,https://rj.metropoliaztm.pl/rozklady/przystanek/2401011-01202t/
Będzin Krasickiego,2401011-01203,1493,50.31464,19.127535,https://rj.metropoliaztm.pl/rozklady/przystanek/2401011-01203/
Będzin Krasickiego,2401011-01204,1494,50.314713,19.127918,https://rj.metropoliaztm.pl/rozklady/przystanek/2401011-01204/
Będzin Małachowskiego,2401011-01301,5449,50.32419,19.133093,https://rj.metropoliaztm.pl/rozklady/przystanek/2401011-01301/
Będzin Małachowskiego,2401011-01301t,4373,50.325493,19.134363,https://rj.metropoliaztm.pl/rozklady/przystanek/2401011-01301t/
Będzin Małachowskiego,2401011-01302t,4374,50.325607,19.134567,https://rj.metropoliaztm.pl/rozklady/przystanek/2401011-01302t/
Będzin Muzeum,2401011-01401,4376,50.32758,19.125614,https://rj.metropoliaztm.pl/rozklady/przystanek/2401011-01401/
Będzin Muzeum,2401011-01401t,4377,50.32925,19.125946,https://rj.metropoliaztm.pl/rozklady/przystanek/2401011-01401t/
Będzin Muzeum,2401011-01402t,8549,50.32916,19.12583,https://rj.metropoliaztm.pl/rozklady/przystanek/2401011-01402t/
Będzin Niemcewicza nż,2401011-01501,4766,50.305717,19.127544,https://rj.metropoliaztm.pl/rozklady/przystanek/2401011-01501/
Będzin Os. 27 Stycznia nż,2401011-01601,9991,50.306454,19.131826,https://rj.metropoliaztm.pl/rozklady/przystanek/2401011-01601/
Będzin Partyzantów,2401011-01701t,4375,50.327377,19.124723,https://rj.metropoliaztm.pl/rozklady/przystanek/2401011-01701t/
Będzin Paryska,2401011-02101t,4371,50.32483,19.141016,https://rj.metropoliaztm.pl/rozklady/przystanek/2401011-02101t/
Będzin Paryska,2401011-02102t,4372,50.324886,19.141134,https://rj.metropoliaztm.pl/rozklady/przystanek/2401011-02102t/
Będzin Poczta nż,2401011-10201,7197,50.318314,19.134958,https://rj.metropoliaztm.pl/rozklady/przystanek/2401011-10201/
Będzin Promyka nż,2401011-01801,4868,50.322723,19.139978,https://rj.metropoliaztm.pl/rozklady/przystanek/2401011-01801/
Będzin Robotnicza nż,2401011-01901,2524,50.311497,19.146166,https://rj.metropoliaztm.pl/rozklady/przystanek/2401011-01901/
Będzin Robotnicza nż,2401011-01902,2525,50.311703,19.146015,https://rj.metropoliaztm.pl/rozklady/przystanek/2401011-01902/
Będzin Rondo,2401011-02001,2559,50.324245,19.123533,https://rj.metropoliaztm.pl/rozklady/przystanek/2401011-02001/
Będzin Rondo,2401011-02001t,2560,50.324818,19.124262,https://rj.metropoliaztm.pl/rozklady/przystanek/2401011-02001t/
Będzin Rondo,2401011-02002t,2561,50.324757,19.124338,https://rj.metropoliaztm.pl/rozklady/przystanek/2401011-02002t/
Będzin Rondo,2401011-02032,8808,50.32471,19.124601,https://rj.metropoliaztm.pl/rozklady/przystanek/2401011-02032/
Będzin Sielecka nż,2401011-01001,9987,50.310577,19.140865,https://rj.metropoliaztm.pl/rozklady/przystanek/2401011-01001/
Będzin Sielecka nż,2401011-01002,9988,50.310795,19.14078,https://rj.metropoliaztm.pl/rozklady/przystanek/2401011-01002/
Będzin Sienkiewicza,2401011-10301,5303,50.319675,19.1367,https://rj.metropoliaztm.pl/rozklady/przystanek/2401011-10301/
Będzin Szyb Ostatek nż,2401011-02401,2978,50.306736,19.14401,https://rj.metropoliaztm.pl/rozklady/przystanek/2401011-02401/
Będzin Szyb Ostatek nż,2401011-02402,2979,50.30707,19.14399,https://rj.metropoliaztm.pl/rozklady/przystanek/2401011-02402/
Będzin Szybowa,2401011-02501,4387,50.310448,19.131897,https://rj.metropoliaztm.pl/rozklady/przystanek/2401011-02501/
Będzin Szybowa,2401011-02501t,4388,50.310562,19.132427,https://rj.metropoliaztm.pl/rozklady/przystanek/2401011-02501t/
Będzin Szybowa,2401011-02502,4389,50.31086,19.132303,https://rj.metropoliaztm.pl/rozklady/przystanek/2401011-02502/
Będzin Szybowa,2401011-02502t,4390,50.310635,19.13235,https://rj.metropoliaztm.pl/rozklady/przystanek/2401011-02502t/
Będzin Słowiańska,2401011-02201,4391,50.30828,19.13703,https://rj.metropoliaztm.pl/rozklady/przystanek/2401011-02201/
Będzin Słowiańska,2401011-02201t,4392,50.30843,19.137234,https://rj.metropoliaztm.pl/rozklady/przystanek/2401011-02201t/
Będzin Słowiańska,2401011-02202,4393,50.308514,19.13747,https://rj.metropoliaztm.pl/rozklady/przystanek/2401011-02202/
Będzin Słowiańska,2401011-02202t,4394,50.308273,19.137459,https://rj.metropoliaztm.pl/rozklady/przystanek/2401011-02202t/
Będzin Targowisko,2401011-02601,3079,50.33129,19.127342,https://rj.metropoliaztm.pl/rozklady/przystanek/2401011-02601/
Będzin Targowisko,2401011-02602,3080,50.330196,19.127878,https://rj.metropoliaztm.pl/rozklady/przystanek/2401011-02602/
Będzin Targowisko,2401011-02603,7289,50.33064,19.128744,https://rj.metropoliaztm.pl/rozklady/przystanek/2401011-02603/
Będzin Urząd Miasta,2401011-02701,4882,50.322212,19.128407,https://rj.metropoliaztm.pl/rozklady/przystanek/2401011-02701/
Będzin Zagórska,2401011-02801,3390,50.315887,19.137165,https://rj.metropoliaztm.pl/rozklady/przystanek/2401011-02801/
Będzin Zagórska,2401011-02802,3391,50.316093,19.137154,https://rj.metropoliaztm.pl/rozklady/przystanek/2401011-02802/
Będzin Zagórska,2401011-02831,10345,50.316936,19.136457,https://rj.metropoliaztm.pl/rozklady/przystanek/2401011-02831/
Będzin Zagórska,2401011-02832,10342,50.316895,19.136307,https://rj.metropoliaztm.pl/rozklady/przystanek/2401011-02832/
Będzin Zajezdnia Dysp. [tech],2401011-90101t,5133,50.328045,19.108536,https://rj.metropoliaztm.pl/rozklady/przystanek/2401011-90101t/
Będzin Zamek,2401011-03001,3440,50.325012,19.127728,https://rj.metropoliaztm.pl/rozklady/przystanek/2401011-03001/
Będzin Zamek,2401011-03001t,3441,50.326138,19.126043,https://rj.metropoliaztm.pl/rozklady/przystanek/2401011-03001t/
Będzin Zamek,2401011-03002,5304,50.325314,19.127699,https://rj.metropoliaztm.pl/rozklady/przystanek/2401011-03002/
Będzin Zamek,2401011-03002t,3442,50.32618,19.126032,https://rj.metropoliaztm.pl/rozklady/przystanek/2401011-03002t/
Będzin Zawale nż,2401011-03101,4884,50.32386,19.130163,https://rj.metropoliaztm.pl/rozklady/przystanek/2401011-03101/
Błażejowice,2405082-01701,5960,50.494312,18.586433,https://rj.metropoliaztm.pl/rozklady/przystanek/2405082-01701/
Błażejowice,2405082-01702,5959,50.494232,18.586905,https://rj.metropoliaztm.pl/rozklady/przystanek/2405082-01702/
Błędów Kościół,2465011-00401,97,50.346237,19.460472,https://rj.metropoliaztm.pl/rozklady/przystanek/2465011-00401/
Błędów Kościół,2465011-00402,98,50.346424,19.461535,https://rj.metropoliaztm.pl/rozklady/przystanek/2465011-00402/
Błędów LZS Tęcza,2465011-20701,5431,50.34428,19.438322,https://rj.metropoliaztm.pl/rozklady/przystanek/2465011-20701/
Błędów LZS Tęcza,2465011-20702,5432,50.344402,19.439186,https://rj.metropoliaztm.pl/rozklady/przystanek/2465011-20702/
Błędów Szkoła,2465011-00501,360,50.344948,19.450554,https://rj.metropoliaztm.pl/rozklady/przystanek/2465011-00501/
Błędów Szkoła,2465011-00502,361,50.344864,19.4477,https://rj.metropoliaztm.pl/rozklady/przystanek/2465011-00502/
Błędów Sztorcowa,2465011-00601,362,50.343792,19.429558,https://rj.metropoliaztm.pl/rozklady/przystanek/2465011-00601/
Błędów Sztorcowa,2465011-00602,363,50.343822,19.428827,https://rj.metropoliaztm.pl/rozklady/przystanek/2465011-00602/
Błędów Zagórze,2465011-00701,364,50.356018,19.45497,https://rj.metropoliaztm.pl/rozklady/przystanek/2465011-00701/
Celiny Autostrada,2413062-04501,405,50.448963,19.052122,https://rj.metropoliaztm.pl/rozklady/przystanek/2413062-04501/
Celiny Autostrada,2413062-04502,404,50.449116,19.05048,https://rj.metropoliaztm.pl/rozklady/przystanek/2413062-04502/
Celiny Droga do Pyrzowic nż,2413062-04201,5096,50.451385,19.06852,https://rj.metropoliaztm.pl/rozklady/przystanek/2413062-04201/
Celiny Droga do Pyrzowic nż,2413062-04202,5575,50.451206,19.068247,https://rj.metropoliaztm.pl/rozklady/przystanek/2413062-04202/
Celiny OSP,2413062-04401,5347,50.44909,19.062283,https://rj.metropoliaztm.pl/rozklady/przystanek/2413062-04401/
Celiny Skrzyżowanie,2413062-04302,3840,50.449997,19.066145,https://rj.metropoliaztm.pl/rozklady/przystanek/2413062-04302/
Celiny Szmaragdowa,2413062-05001,8147,50.447155,19.065792,https://rj.metropoliaztm.pl/rozklady/przystanek/2413062-05001/
Celiny Szmaragdowa,2413062-05002,8146,50.447918,19.066723,https://rj.metropoliaztm.pl/rozklady/przystanek/2413062-05002/
Chebzie Dworcowa,2472011-02001,415,50.302666,18.881706,https://rj.metropoliaztm.pl/rozklady/przystanek/2472011-02001/
Chebzie Dworcowa,2472011-02001t,416,50.302513,18.882105,https://rj.metropoliaztm.pl/rozklady/przystanek/2472011-02001t/
Chebzie Dworcowa,2472011-02002,417,50.302444,18.881632,https://rj.metropoliaztm.pl/rozklady/przystanek/2472011-02002/
Chebzie Dworcowa,2472011-02002t,418,50.302334,18.882147,https://rj.metropoliaztm.pl/rozklady/przystanek/2472011-02002t/
Chebzie Dworzec PKP,2472011-02101,411,50.303513,18.878395,https://rj.metropoliaztm.pl/rozklady/przystanek/2472011-02101/
Chebzie Dworzec PKP,2472011-02102,412,50.303295,18.878181,https://rj.metropoliaztm.pl/rozklady/przystanek/2472011-02102/
Chebzie Mijanka [tech],2472011-09701t,8337,50.305595,18.884108,https://rj.metropoliaztm.pl/rozklady/przystanek/2472011-09701t/
Chebzie Pawła,2472011-02201t,8372,50.304554,18.883808,https://rj.metropoliaztm.pl/rozklady/przystanek/2472011-02201t/
Chebzie Pawła,2472011-02202t,5110,50.30454,18.883646,https://rj.metropoliaztm.pl/rozklady/przystanek/2472011-02202t/
Chebzie Pawła,2472011-02203t,8373,50.30453,18.884495,https://rj.metropoliaztm.pl/rozklady/przystanek/2472011-02203t/
Chebzie Pawła,2472011-02204t,8374,50.304646,18.88486,https://rj.metropoliaztm.pl/rozklady/przystanek/2472011-02204t/
Chebzie Pawła nż,2472011-02201,5108,50.305008,18.883684,https://rj.metropoliaztm.pl/rozklady/przystanek/2472011-02201/
Chebzie Pawła nż,2472011-02202,5109,50.30481,18.885033,https://rj.metropoliaztm.pl/rozklady/przystanek/2472011-02202/
Chebzie Pętla,2472011-02301t,9128,50.30041,18.881336,https://rj.metropoliaztm.pl/rozklady/przystanek/2472011-02301t/
Chebzie Pętla,2472011-02301t,9133,50.30109,18.882584,https://rj.metropoliaztm.pl/rozklady/przystanek/2472011-02301t/
Chebzie Pętla,2472011-02302t,4279,50.30078,18.882069,https://rj.metropoliaztm.pl/rozklady/przystanek/2472011-02302t/
Chebzie Pętla,2472011-02302t,9132,50.30078,18.882069,https://rj.metropoliaztm.pl/rozklady/przystanek/2472011-02302t/
Chebzie Pętla,2472011-02303t,9127,50.30056,18.88277,https://rj.metropoliaztm.pl/rozklady/przystanek/2472011-02303t/
Chebzie Pętla,2472011-02303t,9131,50.30056,18.88277,https://rj.metropoliaztm.pl/rozklady/przystanek/2472011-02303t/
Chebzie Pętla,2472011-02304t,4281,50.300545,18.882843,https://rj.metropoliaztm.pl/rozklady/przystanek/2472011-02304t/
Chebzie Pętla,2472011-02304t,9135,50.300545,18.882843,https://rj.metropoliaztm.pl/rozklady/przystanek/2472011-02304t/
Chebzie Pętla,2472011-02305t,4282,50.300964,18.883234,https://rj.metropoliaztm.pl/rozklady/przystanek/2472011-02305t/
Chebzie Pętla,2472011-02305t,9419,50.300964,18.883234,https://rj.metropoliaztm.pl/rozklady/przystanek/2472011-02305t/
Chebzie Pętla Techniczny,2472011-09906t,9418,50.300743,18.881733,https://rj.metropoliaztm.pl/rozklady/przystanek/2472011-09906t/
Chebzie Pętla Techniczny [tech],2472011-09906t,10481,50.300743,18.881733,https://rj.metropoliaztm.pl/rozklady/przystanek/2472011-09906t/
Chebzie Rondo,2472011-02401,413,50.30081,18.881725,https://rj.metropoliaztm.pl/rozklady/przystanek/2472011-02401/
Chebzie Rondo,2472011-02402,414,50.300594,18.881008,https://rj.metropoliaztm.pl/rozklady/przystanek/2472011-02402/
Chebzie Rondo,2472011-02404,7514,50.30037,18.883585,https://rj.metropoliaztm.pl/rozklady/przystanek/2472011-02404/
Chebzie Rondo [tech],2472011-12901,9618,50.301846,18.883184,https://rj.metropoliaztm.pl/rozklady/przystanek/2472011-12901/
Chebzie Styczyńskiego,2472011-02501,5658,50.30143,18.874369,https://rj.metropoliaztm.pl/rozklady/przystanek/2472011-02501/
Chebzie Styczyńskiego,2472011-02501t,4673,50.301353,18.875065,https://rj.metropoliaztm.pl/rozklady/przystanek/2472011-02501t/
Chebzie Styczyńskiego,2472011-02502,5659,50.30129,18.874271,https://rj.metropoliaztm.pl/rozklady/przystanek/2472011-02502/
Chebzie Styczyńskiego,2472011-02502t,4674,50.301315,18.875128,https://rj.metropoliaztm.pl/rozklady/przystanek/2472011-02502t/
Chebzie Tlenownia [tech],2472011-02601t,4681,50.295895,18.876968,https://rj.metropoliaztm.pl/rozklady/przystanek/2472011-02601t/
Chebzie Tlenownia [tech],2472011-02602t,4682,50.2959,18.87696,https://rj.metropoliaztm.pl/rozklady/przystanek/2472011-02602t/
Chebzie Węglowa,2472011-13401,8021,50.30154,18.87985,https://rj.metropoliaztm.pl/rozklady/przystanek/2472011-13401/
